storenum,opendate,date_super,conversion,st,county,streetaddr,strcity,strstate,type_store,strstate_order,region,statename,zipcode,Store Name,number,streetaddr1,strcity1,strstate1,zipcode1,phone-number,Longitude,Latitude
1,1962-07-01,1997-03-01,1,05,007,2110 WEST WALNUT,Rogers,AR,Supercenter,AR,South,Arkansas,72756,"Walmart Supercenter - Rogers , Gas,",#0001,2110 West Walnut,Rogers,AR,72756,(479) 636-3222,-94.148724,36.332307
2,1964-08-01,1996-03-01,1,05,009,1417 HWY 62/65 N,Harrison,AR,Supercenter,AR,South,Arkansas,72601,"Walmart Supercenter - Harrison, Gas,",#0002,161 N Walmart Dr,Harrison,AR,72601,(870) 365-8400,-93.138559,36.266594
3,1988-04-12,2000-03-01,1,13,011,30983 HWY 441 SOUTH,Commerce,GA,Supercenter,GA,South,Georgia,30529,"Walmart Supercenter - Commerce , Gas,",#0003,30983 Hwy 441 South,Commerce,GA,30529,(812) 346-5100,-83.457396,34.247368
4,1965-08-01,2002-03-01,1,05,007,2901 HWY 412 EAST,Siloam Springs,AR,Supercenter,AR,South,Arkansas,72761,"Walmart Supercenter - Siloam Springs , Gas/Diesel,",#0004,2901 Hwy 412 East,Siloam Springs,AR,72761,(479) 524-5101,-94.512542,36.182377
5,1972-05-01,1994-03-01,1,05,045,1155 HWY 65 NORTH,Conway,AR,Supercenter,AR,South,Arkansas,72032,"Walmart Supercenter - Conway , Gas/Diesel,",#0005,1155 Hwy 65 North,Conway,AR,72032,(501) 329-0023,-92.438182,35.10855
8,1967-10-01,1993-03-01,1,05,029,1621 NORTH BUSINESS 9,Morrilton,AR,Supercenter,AR,South,Arkansas,72110,"Walmart Supercenter - Morrilton, Gas,",#0008,1621 North Business 9,Morrilton,AR,72110,(501) 354-0290,-92.725648,35.168747
9,1968-03-01,2000-03-01,1,29,143,1303 SOUTH MAIN,Sikeston,MO,Supercenter,MO,Midwest,Missouri,63801,"Walmart Supercenter - Sikeston,",#0009,1303 Hennings,Sikeston,MO,63801,(573) 472-3020,-89.58504,36.857527
10,1968-07-01,1998-03-01,1,40,021,2020 SOUTH MUSKOGEE,Tahlequah,OK,Supercenter,OK,South,Oklahoma,74464,"Walmart Supercenter - Tahlequah,",#0010,2020 South Muskogee,Tahlequah,OK,74464,(918) 456-8804,-94.978595,35.888854
11,1968-03-01,2002-02-20,1,05,005,65 WAL-MART DRIVE,Mountain Home,AR,Supercenter,AR,South,Arkansas,72653,"Walmart Supercenter - Mountain Home, Gas/Diesel,",#0011,65 Walmart Dr,Mountain Home,AR,72653,(870) 492-9299,-92.341154,36.357581
12,1968-07-01,1994-03-01,1,40,131,1500 LYNN RIGGS BLVD,Claremore,OK,Supercenter,OK,South,Oklahoma,74017,"Walmart Supercenter - Claremore  , Gas/Diesel,",#0012,1500 Lynn Riggs Blvd,Claremore,OK,74017,(918) 341-2765,-95.628502,36.29437
13,1968-11-01,1996-03-01,1,29,097,2705 GRAND AVE,Carthage,MO,Supercenter,MO,Midwest,Missouri,64836,"Walmart Supercenter - Carthage, Gas,",#0013,2705 Grand Ave,Carthage,MO,64836,(417) 358-3000,-94.31227,37.14201
14,1969-04-01,1999-03-01,1,29,105,1800 S JEFFERSON,Lebanon,MO,Supercenter,MO,Midwest,Missouri,65536,"Walmart Supercenter - Lebanon,",#0014,1800 S Jefferson,Lebanon,MO,65536,(417) 588-2268,-92.650791,37.662801
15,1969-05-01,1995-03-01,1,29,091,1310 PREACHER RD/HGWY 160,West Plains,MO,Supercenter,MO,Midwest,Missouri,65775,"Walmart Supercenter - West Plains, Gas,",#0015,1310 Preacher Rd/hgwy 160,West Plains,MO,65775,(417) 257-2800,-91.871802,36.714621
16,1969-04-01,2000-03-01,1,05,033,2214 FAYETTEVILLE RD,Van Buren,AR,Supercenter,AR,South,Arkansas,72956,"Walmart Supercenter - Van Buren, Gas,",#0016,2214 Fayetteville Rd,Van Buren,AR,72956,(479) 474-2314,-94.354547,35.469159
17,1969-05-01,1993-03-01,1,29,145,3200 LUSK DRIVE,Neosho,MO,Supercenter,MO,Midwest,Missouri,64850,"Walmart Supercenter - Neosho, Gas,",#0017,3200 Lusk Dr,Neosho,MO,64850,(417) 451-5544,-94.395833,36.839179
18,1969-11-01,NA,NA,05,067,2500 MALCOLM ST/HWY 67 NORTH,Newport,AR,Wal-Mart,AR,South,Arkansas,72112,"Walmart Supercenter - Newport,",#0018,1211 Arkansas 367,Newport,AR,72112,(870) 523-2500,-91.253489,35.617243
19,1990-04-03,1990-04-03,0,29,023,333 S WESTWOOD,Poplar Bluff,MO,Supercenter,MO,Midwest,Missouri,63901,"Walmart Supercenter - Poplar Bluff,",#0019,333 S Westwood,Poplar Bluff,MO,63901,(573) 686-6420,-90.410723,36.75574
20,1970-10-01,1999-03-01,1,29,083,1712 EAST OHIO,Clinton,MO,Supercenter,MO,Midwest,Missouri,64735,"Walmart Supercenter - Clinton,",#0020,1712 East Ohio,Clinton,MO,64735,(660) 885-5536,-93.750499,38.363675
21,1970-03-01,2001-08-22,1,29,169,185 ST ROBERT BLVD,St. Robert,MO,Supercenter,MO,Midwest,Missouri,65584,"Walmart Supercenter - St. Robert,",#0021,185 St Robert Blvd,St. Robert,MO,65584,(573) 336-5103,-92.153384,37.82508
22,1970-10-01,2005-05-18,1,40,097,4901 SO. MILL ROAD,Pryor,OK,Supercenter,OK,South,Oklahoma,74361,"Walmart Supercenter - Pryor , Gas/Diesel,",#0022,4901 So Mill St,Pryor,OK,74361,(918) 825-6000,-95.3234,36.291844
23,1970-11-01,1994-03-01,1,22,061,1201 N SERVICE ROAD EAST,Ruston,LA,Supercenter,LA,South,Louisiana,71270,"Walmart Supercenter - East Ruston, Gas,",#0023,1201 N Service Rd,Ruston,LA,71270,(318) 251-1168,-92.623787,32.542445
24,1971-04-01,1999-03-01,1,05,119,2000 JOHN HARDEN DR,Jacksonville,AR,Supercenter,AR,South,Arkansas,72076,"Walmart Supercenter - Jacksonville,",#0024,2000 John Harden Dr,Jacksonville,AR,72076,(501) 985-8731,-92.111251,34.884897
25,1971-02-01,2005-05-18,1,29,007,4820 SO. CLARK ST,Mexico,MO,Supercenter,MO,Midwest,Missouri,65265,"Walmart Supercenter - Mexico , Gas/Diesel,",#0025,4820 S Clark St,Mexico,MO,65265,(573) 581-4500,-91.891998,39.120453
26,1970-11-01,NA,NA,20,103,3450 S. 4TH TRAFFICWAY,Leavenworth,KS,Wal-Mart,KS,Midwest,Kansas,66048,"Walmart Supercenter - Leavenworth,",#0026,5000 10th Ave,Leavenworth,KS,66048,(913) 250-0182,-94.906127,39.283915
27,1971-02-01,1999-03-01,1,29,065,1101 HWY 32 WEST,Salem,MO,Supercenter,MO,Midwest,Missouri,65560,"Walmart Supercenter - Salem ,",#0027,1101 Hwy 32 West,Salem,MO,65560,(573) 729-6151,-91.546064,37.635173
28,1971-05-01,2002-03-01,1,40,115,2415 N.W. MAIN ST,Miami,OK,Supercenter,OK,South,Oklahoma,74354,"Walmart Supercenter - Miami , Gas/Diesel,",#0028,2415 N Main St,Miami,OK,74354,(918) 542-6654,-94.879041,36.904555
29,1971-08-01,1989-03-01,1,29,051,724 STADIUM WEST BLVD,Jefferson City,MO,Supercenter,MO,Midwest,Missouri,65109,"Walmart Supercenter - Jefferson City,",#0029,724 Stadium West Blvd,Jefferson City,MO,65109,(573) 635-8283,-92.218452,38.58006
30,1971-11-01,2005-05-18,1,29,207,2025 BUS. HWY 60 WEST,Dexter,MO,Supercenter,MO,Midwest,Missouri,63841,"Walmart Supercenter - Dexter , Gas/Diesel,",#0030,2025 Bus. Hwy 60 West,Dexter,MO,63841,(573) 624-5514,-89.992297,36.801347
31,1971-06-01,1995-03-01,1,40,079,3108 N BROADWAY,Poteau,OK,Supercenter,OK,South,Oklahoma,74953,"Walmart Supercenter - Poteau, Gas,",#0031,3108 N BRdway,Poteau,OK,74953,(918) 647-5040,-94.629461,35.094614
32,1971-06-01,NA,NA,29,213,2050 WEST HWY 76,Branson,MO,Wal-Mart,MO,Midwest,Missouri,65616,"Walmart - Branson ,",#0032,2050 West Hwy 76,Branson,MO,65616,(417) 334-5005,-93.25953,36.639952
33,1971-06-01,2003-09-17,1,05,061,1710 SO. 4TH ST,Nashville,AR,Supercenter,AR,South,Arkansas,71852,"Walmart Supercenter - Nashville , Gas/Diesel,",#0033,1710 So. 4th St,Nashville,AR,71852,(870) 845-1881,-93.856603,33.924748
34,1971-11-01,2003-05-21,1,29,217,2250 LINCOLN AVENUE,Nevada,MO,Supercenter,MO,Midwest,Missouri,64772,"Walmart Supercenter - Nevada , Gas/Diesel,",#0034,2250 Lincoln Ave,Nevada,MO,64772,(417) 667-3630,-94.326416,37.833226
35,1971-10-01,2004-03-17,1,20,161,101 EAST BLUEMONT AVENUE,Manhattan,KS,Supercenter,KS,Midwest,Kansas,66502,"Walmart Supercenter - Manhattan,",#0035,101 East Bluemont Ave,Manhattan,KS,66502,(785) 776-4897,-96.55626,39.187502
36,1971-11-01,1996-03-01,1,05,055,2802 WEST KINGS HIGHWAY,Paragould,AR,Supercenter,AR,South,Arkansas,72450,"Walmart Supercenter - Paragould,",#0036,2802 West Kings Hwy,Paragould,AR,72450,(870) 236-9707,-90.522908,36.058178
37,1971-09-01,1989-03-01,1,29,187,701 WALTON DRIVE,Farmington,MO,Supercenter,MO,Midwest,Missouri,63640,"Walmart Supercenter - Farmington ,",#0037,701 Walton Dr,Farmington,MO,63640,(573) 756-8448,-90.434645,37.790244
38,1971-12-09,2004-03-17,1,40,089,1907 SE WASHINGTON ST.,Idabel,OK,Supercenter,OK,South,Oklahoma,74745,"Walmart Supercenter - Idabel , Gas/Diesel,",#0038,1907 Se Washington St,Idabel,OK,74745,(580) 286-6696,-94.803615,33.897226
39,1972-03-01,NA,NA,20,011,2400 SOUTH MAIN,Fort Scott,KS,Wal-Mart,KS,Midwest,Kansas,66701,"Walmart Supercenter - Fort Scott,",#0039,2500 S Main,Fort Scott,KS,66701,(620) 223-2867,-94.707225,37.808314
40,1971-11-01,1995-03-01,1,29,175,1301 HWY 24 EAST,Moberly,MO,Supercenter,MO,Midwest,Missouri,65270,"Walmart Supercenter - Moberly, Gas,",#0040,1301 Hwy 24 East,Moberly,MO,65270,(660) 263-3113,-92.419805,39.44681
41,1972-05-01,1994-03-01,1,40,147,4000 GREEN COUNTRY RD,Bartlesville,OK,Supercenter,OK,South,Oklahoma,74006,"Walmart Supercenter - Bartlesville , Gas/Diesel,",#0041,4000 Green Country Rd,Bartlesville,OK,74006,(918) 335-6600,-95.932612,36.740772
42,1973-02-01,NA,NA,20,125,1705 WEST 11TH STREET,Coffeyville,KS,Wal-Mart,KS,Midwest,Kansas,67337,"Walmart Supercenter - Coffeyville,",#0042,1863 County Rd,Coffeyville,KS,67337,(620) 251-2290,-95.644815,37.032379
43,1972-05-01,2000-03-01,1,20,061,521 EAST CHESTNUT ST,Junction City,KS,Supercenter,KS,Midwest,Kansas,66441,"Walmart Supercenter - Junction City,",#0043,521 East Chestnut St,Junction City,KS,66441,(785) 238-8229,-96.820687,39.020321
44,1972-02-01,NA,NA,29,131,1802 SOUTH BUSINESS HWY 54,Eldon,MO,Wal-Mart,MO,Midwest,Missouri,65026,"Walmart - Eldon,",#0044,1802 South Business Hwy 54,Eldon,MO,65026,(573) 392-3114,-92.584397,38.33533
45,1972-08-01,1994-03-01,1,05,031,1815 EAST HIGHLAND DRIVE,Jonesboro,AR,Supercenter,AR,South,Arkansas,72401,"Walmart Supercenter - Jonesboro, Gas,",#0045,1815 East Highland Dr,Jonesboro,AR,72401,(870) 931-5001,-90.685329,35.820107
46,1972-08-01,1999-03-01,1,29,167,2451 S. SPRINGFIELD,Bolivar,MO,Supercenter,MO,Midwest,Missouri,65613,"Walmart Supercenter - Bolivar,",#0046,2451 S. Springfield,Bolivar,MO,65613,(417) 326-8424,-93.402813,37.591809
47,1972-07-01,2001-03-14,1,40,135,1101 WEST RUTH AVE,Sallisaw,OK,Supercenter,OK,South,Oklahoma,74955,"Walmart Supercenter - Sallisaw , Gas/Diesel,",#0047,1101 West Ruth Ave,Sallisaw,OK,74955,(918) 775-4492,-94.80163,35.450072
48,1972-11-01,1999-03-01,1,29,009,885 HIGHWAY 60,Monett,MO,Supercenter,MO,Midwest,Missouri,65708,"Walmart Supercenter - Monett , Gas/Diesel,",#0048,885 Hwy 60,Monett,MO,65708,(417) 235-6292,-93.902844,36.913009
49,1972-10-01,2002-03-01,1,40,023,1911 E.JACKSON ST.,Hugo,OK,Supercenter,OK,South,Oklahoma,74743,"Walmart Supercenter - Hugo , Gas/Diesel,",#0049,1911 E.jackson St.,Hugo,OK,74743,(580) 326-6494,-95.492563,34.009107
50,1973-09-01,2003-01-22,1,40,035,268 SO. 7TH ST.,Vinita,OK,Supercenter,OK,South,Oklahoma,74301,"Walmart Supercenter - Vinita , Gas/Diesel,",#0050,268 So. 7th St.,Vinita,OK,74301,(918) 256-7505,-95.141317,36.631817
51,1973-05-01,1998-03-01,1,29,027,1701 NORTH BLUFF STREET,Fulton,MO,Supercenter,MO,Midwest,Missouri,65251,"Walmart Supercenter - Fulton,",#0051,1701 North Bluff St,Fulton,MO,65251,(573) 642-6877,-91.944688,38.864263
52,1972-07-01,2000-03-01,1,05,051,1601 ALBERT PIKE BLV,Hot Springs,AR,Supercenter,AR,South,Arkansas,71913,"Walmart Supercenter - Hot Springs , Gas/Diesel,",#0052,1601 Albert Pike Blvd,Hot Springs,AR,71913,(501) 624-2498,-93.089252,34.491974
54,1972-06-01,1992-03-01,1,05,143,2004 SOUTH PLEASANT,Springdale,AR,Supercenter,AR,South,Arkansas,72764,"Walmart Supercenter - Springdale,",#0054,2004 South Pleasant,Springdale,AR,72764,(479) 751-4817,-94.145398,36.166186
55,1972-10-01,NA,NA,05,083,1555 EAST MAIN,Booneville,AR,Wal-Mart,AR,South,Arkansas,72927,"Walmart - Booneville,",#0055,1555 East Main,Booneville,AR,72927,(479) 675-3688,-93.901892,35.14293
56,1973-08-01,2004-03-17,1,29,067,1309 NW 12TH AVE,Ava,MO,Supercenter,MO,Midwest,Missouri,65608,"Walmart Supercenter - Ava , Gas/Diesel,",#0056,1309 NW 12th Ave,Ava,MO,65608,(417) 683-4194,-92.676149,36.959939
57,1972-10-01,NA,NA,05,075,1600 WEST MAIN,Walnut Ridge,AR,Wal-Mart,AR,South,Arkansas,72476,"Walmart - Walnut Ridge,",#0057,1600 West Main,Walnut Ridge,AR,72476,(870) 886-6605,-90.974148,36.076106
58,1973-05-01,2005-10-26,1,05,115,2409 EAST MAIN STREET,Russellville,AR,Supercenter,AR,South,Arkansas,72802,"Walmart Supercenter - Russellville , Gas/Diesel,",#0058,2409 East Main St,Russellville,AR,72802,(479) 967-9777,-93.105336,35.279516
59,1972-05-01,1996-03-01,1,29,097,1501 SOUTH RANGELINE ROAD,Joplin,MO,Supercenter,MO,Midwest,Missouri,64804,"Walmart Supercenter - Joplin,",#0059,1501 South Rangeline Rd,Joplin,MO,64804,(417) 781-0100,-94.47405,37.073291
60,1975-03-01,1996-03-01,1,29,113,101 HWY 47 EAST,Troy,MO,Supercenter,MO,Midwest,Missouri,63379,"Walmart Supercenter - Troy , Gas,",#0060,101 Hwy 47 East,Troy,MO,63379,(636) 528-8901,-90.98158,38.987789
61,1972-11-01,1993-03-01,1,29,101,301 E. COOPER AVENUE,Warrensburg,MO,Supercenter,MO,Midwest,Missouri,64093,"Walmart Supercenter - Warrensburg, Gas,",#0061,301 E. Cooper Ave,Warrensburg,MO,64093,(660) 747-1505,-93.735271,38.779995
62,1972-11-01,1999-03-01,1,05,093,3700 EAST HWY 18,Blytheville,AR,Supercenter,AR,South,Arkansas,72315,"Walmart Pharmacy/Clinic - Bentonville,",#2203,702 SW 8th St,Bentonville,AR,72712,(479) 273-4941,-94.219265,36.366974
63,1973-09-01,1988-03-01,1,40,145,410 SOUTH DEWEY,Wagoner,OK,Supercenter,OK,South,Oklahoma,74467,"Walmart Supercenter - Wagoner, Gas,",#0063,410 South Dewey,Wagoner,OK,74467,(918) 485-9515,-95.397165,35.957346
64,1973-02-01,NA,NA,47,075,100 SOUTH DUPREE,Brownsville,TN,Wal-Mart,TN,South,Tennessee,38012,"Walmart Supercenter - Brownsville , Gas/Diesel,",#0064,1100 S Dupree Ave,Brownsville,TN,38012,(731) 772-9551,-89.238858,35.587028
65,1973-07-03,1994-03-01,1,29,071,350 PARKRIDGE ROAD,Sullivan,MO,Supercenter,MO,Midwest,Missouri,63080,"Walmart Supercenter - Sullivan,",#0065,350 Parkridge Rd,Sullivan,MO,63080,(573) 468-7030,-91.15542,38.221411
66,1973-08-01,2002-07-17,1,05,071,1230 MARKET STREET,Clarksville,AR,Supercenter,AR,South,Arkansas,72830,"Walmart Supercenter - Clarksville , Gas/Diesel,",#0066,230 Market St,Clarksville,AR,72830,(479) 754-2046,-93.460696,35.449396
67,1973-07-01,1995-03-01,1,05,113,600 HWY 71 NORTH,Mena,AR,Supercenter,AR,South,Arkansas,71953,"Walmart Supercenter - Mena, Gas,",#0067,600 Hwy 71 North,Mena,AR,71953,(479) 394-0025,-94.225973,34.587399
68,1973-08-01,2003-08-20,1,05,037,800 HWY 64 EAST,Wynne,AR,Supercenter,AR,South,Arkansas,72396,"Walmart Supercenter - Wynne , Gas/Diesel,",#0068,800 Hwy 64 East,Wynne,AR,72396,(870) 238-8129,-90.777691,35.252414
69,1973-12-01,1993-03-01,1,29,099,650 SOUTH TRUMAN BLVD,Festus,MO,Supercenter,MO,Midwest,Missouri,63028,"Walmart Supercenter - Festus, Gas,",#0069,650 South Truman Blvd,Festus,MO,63028,(636) 937-8441,-90.388896,38.212515
70,1974-07-01,1997-03-01,1,05,035,798 WEST SERVICE ROAD,West Memphis,AR,Supercenter,AR,South,Arkansas,72301,"Walmart Supercenter - West Memphis ,",#0070,798 West Service Rd West,West Memphis,AR,72301,(870) 732-0175,-90.19983,35.166303
71,1973-11-01,1994-03-01,1,05,121,1415 HWY 67 SOUTH,Pocahontas,AR,Supercenter,AR,South,Arkansas,72455,"Walmart Supercenter - Pocahontas, Gas,",#0071,1415 Hwy 67 S,Pocahontas,AR,72455,(870) 892-7703,-90.963444,36.249335
72,1974-01-01,1994-03-01,1,20,037,2710 N BROADWAY,Pittsburg,KS,Supercenter,KS,Midwest,Kansas,66762,"Walmart Supercenter - Pittsburg ,",#0072,2710 N BRdway,Pittsburg,KS,66762,(620) 232-1593,-94.703343,37.433925
73,1974-10-01,1999-03-01,1,40,037,1002 WEST TAFT,Sapulpa,OK,Supercenter,OK,South,Oklahoma,74066,"Walmart Supercenter - Sapulpa, Gas,",#0073,1002 West Taft,Sapulpa,OK,74066,(918) 224-8080,-96.134627,35.987247
74,1973-11-01,NA,NA,05,093,1051 WEST KEISER AVENUE,Osceola,AR,Wal-Mart,AR,South,Arkansas,72370,"Walmart Supercenter - Osceola,",#0074,2720 W Keiser Ave,Osceola,AR,72370,(870) 563-3251,-90.013016,35.699075
75,1984-11-13,1998-03-01,1,22,079,3636 MONROE HIGHWAY,Pineville,LA,Supercenter,LA,South,Louisiana,71360,"Walmart Supercenter - Pineville, Gas,",#0075,3636 Monroe Hwy,Pineville,LA,71360,(318) 640-6900,-92.407842,31.366878
76,1973-11-01,1993-03-01,1,05,015,1000 WEST TRIMBLE,Berryville,AR,Supercenter,AR,South,Arkansas,72616,"Walmart Supercenter - Berryville, Gas,",#0076,1000 West Trimble,Berryville,AR,72616,(870) 423-4636,-93.586135,36.376834
77,1979-10-30,2004-07-21,1,48,491,3701 NORTH MAIN ST.,Taylor,TX,Supercenter,TX,South,Texas,76574,"Walmart Supercenter - Taylor , Gas/Diesel,",#0077,3701 North Main St,Taylor,TX,76574,(512) 352-5505,-97.417225,30.598982
78,1973-09-01,NA,NA,29,225,1331 SPUR DR/ BUS. RT US HWY66,Marshfield,MO,Wal-Mart,MO,Midwest,Missouri,65706,"Walmart Supercenter - Marshfield , Gas/Diesel,",#0078,14740 State Hwy #38,Marshfield,MO,65706,(417) 468-6116,-92.939829,37.338697
79,1974-04-01,1999-03-01,1,29,097,2623 WEST 7TH STREET,Joplin,MO,Supercenter,MO,Midwest,Missouri,64801,"Walmart Supercenter - Joplin (W), Gas,",#0079,2623 West 7th St,Joplin,MO,64801,(417) 206-4644,-94.545922,37.085811
80,1973-06-01,NA,NA,29,019,401 N STADIUM BL/BISCAYNE MALL,Columbia,MO,Wal-Mart,MO,Midwest,Missouri,65201,"Walmart Express - Columbia,",#6933,308 S Ninth St,Columbia,MO,65201,(573) 499-9005,-92.327731,38.948012
81,1973-06-01,2005-10-26,1,40,001,ROUTE 6 BOX 1895,Stilwell,OK,Supercenter,OK,South,Oklahoma,74960,"Walmart Supercenter - Stilwell , Gas/Diesel,",#0081,400 West Locust St,Stilwell,OK,74960,(918) 696-3141,-94.631078,35.807614
82,1974-04-01,1998-03-01,1,29,157,1750 S. PERRYVILLE,Perryville,MO,Supercenter,MO,Midwest,Missouri,63775,"Walmart Supercenter - Perryville,",#0082,1750 S. Perryville,Perryville,MO,63775,(573) 547-2577,-89.895009,37.705306
83,1974-08-01,2003-08-20,1,05,027,60 79-BYPASS NORTH,Magnolia,AR,Supercenter,AR,South,Arkansas,71753,"Walmart Supercenter - Magnolia , Gas/Diesel,",#0083,60 79-bypass North,Magnolia,AR,71753,(870) 234-7800,-93.214039,33.275921
85,1974-04-01,1996-03-01,1,05,125,17309 I-30,Benton,AR,Supercenter,AR,South,Arkansas,72015,"Walmart Supercenter - Benton, Gas,",#0085,17309 I-30 Frontage Rd,Benton,AR,72015,(501) 860-6135,-92.58112,34.577409
86,1973-12-01,1994-03-01,1,29,077,2825 N KANSAS EXPRESSWAY,Springfield,MO,Supercenter,MO,Midwest,Missouri,65803,"Walmart Supercenter - Springfield ,",#0086,2825 N Kansas Expressway,Springfield,MO,65803,(417) 865-8865,-93.312704,37.248776
87,1974-07-01,1999-03-01,1,22,119,1379 HOMER ROAD,Minden,LA,Supercenter,LA,South,Louisiana,71055,"Walmart Supercenter - Minden, Gas,",#0087,1379 Homer Rd,Minden,LA,71055,(318) 371-9290,-93.251176,32.626904
88,1974-02-01,1994-03-01,1,29,229,2100 NORTH MAIN,Mt. Grove,MO,Supercenter,MO,Midwest,Missouri,65711,"Walmart Supercenter - Mountain Grove , Gas/Diesel,",#0088,2100 North Main,Mountain Grove,MO,65711,(417) 926-5107,-92.260446,37.149999
89,1974-02-01,2005-04-13,1,29,029,94 CECIL STREET,Camdenton,MO,Supercenter,MO,Midwest,Missouri,65020,"Walmart Supercenter - Camdenton , Gas/Diesel,",#0089,94 Cecil St,Camdenton,MO,65020,(573) 346-3588,-92.723534,38.024899
90,1974-04-01,1995-03-01,1,40,041,2115 S MAIN ST,Grove,OK,Supercenter,OK,South,Oklahoma,74344,"Walmart Supercenter - Grove,",#0090,2115 S Main St,Grove,OK,74344,(918) 786-8561,-94.770021,36.578654
91,1974-09-01,1994-03-01,1,05,123,205 DEADRICK ROAD,Forrest City,AR,Supercenter,AR,South,Arkansas,72335,"Walmart Supercenter - Forrest City , Gas,",#0091,205 Deadrick Rd,Forrest City,AR,72335,(870) 633-0021,-90.793322,35.0289996
92,1974-04-01,NA,NA,29,109,3020 SOUTH ELLIOTT,Aurora,MO,Wal-Mart,MO,Midwest,Missouri,65605,"Walmart Supercenter - Aurora , Gas/Diesel,",#0092,3020 South Elliott,Aurora,MO,65605,(417) 678-5800,-93.715966,36.94644
93,1974-10-01,NA,NA,47,167,975 US HIGHWAY 51 NORTH,Covington,TN,Wal-Mart,TN,South,Tennessee,38019,"Walmart Supercenter - Covington , Gas/Diesel,",#0093,201 Lanny Bridges Ave,Covington,TN,38019,(901) 476-4492,-89.664482,35.545041
94,1974-07-01,1997-03-01,1,47,157,8445 HWY 51 NORTH,Millington,TN,Supercenter,TN,South,Tennessee,38053,"Walmart Supercenter - Millington, Gas,",#0094,8445 Hwy 51 North,Millington,TN,38053,(901) 872-6100,-89.900396,35.351778
95,1974-10-01,2003-05-21,1,29,187,407 NO. STATE ST,Desloge,MO,Supercenter,MO,Midwest,Missouri,63601,"Walmart Supercenter - Desloge , Gas/Diesel,",#0095,407 No. State St,Desloge,MO,63601,(573) 431-5094,-90.513354,37.881991
96,1974-10-01,1994-03-01,1,29,037,1700 NORTH 291 HIGHWAY,Harrisonville,MO,Supercenter,MO,Midwest,Missouri,64701,"Walmart Supercenter - Harrisonville , Gas,",#0096,1700 North 291 Hwy,Harrisonville,MO,64701,(816) 884-5635,-94.368092,38.666189
97,1974-11-01,1994-03-01,1,47,097,628 HWY 51 BYPASS,Ripley,TN,Supercenter,TN,South,Tennessee,38063,"Walmart Supercenter - Ripley, Gas,",#0097,628 Hwy 51 Bypass,Ripley,TN,38063,(731) 635-8904,-89.543063,35.761845
98,1975-02-01,NA,NA,22,067,2030 EAST MADISON,Bastrop,LA,Wal-Mart,LA,South,Louisiana,71220,"Walmart Supercenter - Bastrop , Gas/Diesel,",#0098,6091 Mer Rouge Rd,Bastrop,LA,71220,(318) 281-9384,-91.86994,32.774
99,1976-02-01,1995-03-01,1,29,071,1445 E CENTRAL,Union,MO,Supercenter,MO,Midwest,Missouri,63084,"Walmart Supercenter - Union,",#0099,1445 E Central,Union,MO,63084,(636) 583-2355,-90.969784,38.433623
100,1974-10-01,1992-03-01,1,05,007,406 SOUTH WALTON BLVD,Bentonville,AR,Supercenter,AR,South,Arkansas,72712,"Walmart Supercenter - Bentonville , Gas/Diesel,",#0100,406 South Walton Blvd,Bentonville,AR,72712,(479) 273-0060,-94.224004,36.367959
101,1976-02-01,1994-03-01,1,29,161,500 SOUTH BISHOP,Rolla,MO,Supercenter,MO,Midwest,Missouri,65401,"Walmart Supercenter - Rolla,",#0101,500 South Bishop,Rolla,MO,65401,(573) 341-9145,-91.778932,37.938579
102,1974-09-01,1995-03-01,1,05,001,406 E 22ND STREET,Stuttgart,AR,Supercenter,AR,South,Arkansas,72160,"Walmart Supercenter - Stuttgart,",#0102,406 E 22nd St,Stuttgart,AR,72160,(870) 673-3349,-91.548865,34.477903
103,1975-08-01,2004-08-25,1,40,125,196 SHAWNEE MALL DRIVE,Shawnee,OK,Supercenter,OK,South,Oklahoma,74804,"Walmart Supercenter - Shawnee, Gas/Diesel,",#0103,196 Shawnee Mall Dr,Shawnee,OK,74804,(405) 275-1030,-96.921825,35.385649
104,1974-07-01,NA,NA,47,053,15427 SO. FIRST STREET,Milan,TN,Wal-Mart,TN,South,Tennessee,38358,"Walmart Supercenter - Milan , Gas/Diesel,",#0104,15427 So. First St,Milan,TN,38358,(731) 686-9557,-88.746496,35.876282
105,1974-08-01,1994-03-01,1,28,003,2301 HARPER ROAD,Corinth,MS,Supercenter,MS,South,Mississippi,38834,"Walmart Supercenter - Corinth, Gas,",#0105,2301 South Harper Rd,Corinth,MS,38834,(662) 287-3148,-88.50176,34.91122
106,1974-08-01,2004-10-20,1,21,075,1405 MIDDLE ROAD,Fulton,KY,Supercenter,KY,South,Kentucky,42041,"Walmart Supercenter - Fulton, Gas/Diesel,",#0106,1405 Middle Rd,Fulton,KY,42041,(270) 472-1426,-88.900167,36.5161
107,1974-10-01,NA,NA,47,183,850 WAL-MART DRIVE,Martin,TN,Wal-Mart,TN,South,Tennessee,38237,"Walmart Supercenter - Martin , Gas/Diesel,",#0107,134 Courtright Rd,Martin,TN,38237,(731) 587-3843,-88.88239,36.353906
108,1975-02-01,NA,NA,40,083,1618 SOUTH DIVISION,Guthrie,OK,Wal-Mart,OK,South,Oklahoma,73044,"Walmart Supercenter - Guthrie,",#0108,1608 S Division,Guthrie,OK,73044,(405) 282-7900,-97.422295,35.861924
109,1975-02-01,1995-03-01,1,29,063,2000 NORTH WALNUT,Cameron,MO,Supercenter,MO,Midwest,Missouri,64429,"Walmart Supercenter - Cameron ,",#0109,2000 North Walnut,Cameron,MO,64429,(816) 632-9900,-94.232571,39.758362
111,1975-11-01,2003-06-25,1,20,133,2700 SOUTH SANTA FE,Chanute,KS,Supercenter,KS,Midwest,Kansas,66720,"Walmart Supercenter - Chanute,",#0111,2700 South Santa Fe,Chanute,KS,66720,(620) 431-3077,-95.4511135,37.65438
112,1975-04-01,2002-03-01,1,28,105,1010 HWY 12 WEST,Starkville,MS,Supercenter,MS,South,Mississippi,39759,"Walmart Supercenter - Starkville , Gas/Diesel,",#0112,1010 Hwy 12 West,Starkville,MS,39759,(662) 324-0374,-88.850213,33.444749
113,1975-07-01,2006-01-27,1,40,051,2001 SO. 1ST ST.,Chickasha,OK,Supercenter,OK,South,Oklahoma,73018,"Walmart Supercenter - Chickasha , Gas/Diesel,",#0113,2001 So. 1st St.,Chickasha,OK,73018,(405) 224-1867,-97.932335,35.030533
114,1975-04-01,NA,NA,28,117,200 WALMART CIRCLE,Booneville,MS,Wal-Mart,MS,South,Mississippi,38829,"Walmart Supercenter - Booneville,",#0114,300 Wal-mart Circle,Booneville,MS,38829,(662) 728-6211,-88.563198,34.677429
115,1976-09-01,NA,NA,28,025,1445 HWY 45 NORTH,West Point,MS,Wal-Mart,MS,South,Mississippi,39773,"Walmart Supercenter - West Point, Gas/Diesel,",#0115,1313 Hwy 45 S,West Point,MS,39773,(662) 494-1551,-88.657568,33.585519
116,1975-08-01,NA,NA,22,017,929 SOUTH PINE STREET,Vivian,LA,Wal-Mart,LA,South,Louisiana,71082,"Walmart - Vivian,",#0116,929 South Pine St,Vivian,LA,71082,(318) 375-4810,-93.985956,32.858069
117,1975-06-01,NA,NA,40,089,501 SOUTH PARK DRIVE,Broken Bow,OK,Wal-Mart,OK,South,Oklahoma,74728,"Walmart - Broken Bow,",#0117,501 South Park Dr,Broken Bow,OK,74728,(580) 584-3324,-94.738715,34.022364
118,1976-04-01,1993-03-01,1,28,095,1515 US HWY 278 EAST,Amory,MS,Supercenter,MS,South,Mississippi,38821,"Walmart Supercenter - Amory, Gas,",#0118,1515 Us Hwy 278 East,Amory,MS,38821,(662) 256-1590,-88.459284,33.968
119,1976-03-01,1994-03-01,1,05,063,3150 HARRISON STREET,Batesville,AR,Supercenter,AR,South,Arkansas,72501,"Walmart Supercenter - Batesville, Gas,",#0119,3150 Harrison St,Batesville,AR,72501,(870) 793-9004,-91.613873,35.763584
120,1976-03-01,NA,NA,47,053,2716 NORTH CENTRAL AVENUE,Humboldt,TN,Wal-Mart,TN,South,Tennessee,38343,"Walmart Supercenter - Humboldt , Gas/Diesel,",#0120,2716 North Central Ave,Humboldt,TN,38343,(731) 784-0025,-88.912891,35.840864
121,1975-09-01,1994-03-01,1,40,111,1800 SOUTH WOOD DRIVE,Okmulgee,OK,Supercenter,OK,South,Oklahoma,74447,"Walmart Supercenter - Okmulgee, Gas,",#0121,1800 South Wood Dr,Okmulgee,OK,74447,(918) 756-6790,-95.962994,35.605742
122,1975-11-01,1999-03-01,1,29,031,3051 EAST JACKSON BLVD.,Jackson,MO,Supercenter,MO,Midwest,Missouri,63755,"Walmart Supercenter - Jackson, Gas,",#0122,3051 East Jackson Blvd.,Jackson,MO,63755,(573) 243-3909,-89.634356,37.362931
123,1975-06-01,2003-10-29,1,40,133,1500 E. WRANGLER BLVD,Seminole,OK,Supercenter,OK,South,Oklahoma,74868,"Walmart Supercenter - Seminole , Gas/Diesel,",#0123,1500 E. Wrangler Blvd,Seminole,OK,74868,(405) 382-5290,-96.654363,35.247652
124,1975-03-01,1999-03-01,1,05,119,8801 BASELINE ROAD,Little Rock,AR,Supercenter,AR,South,Arkansas,72209,"Walmart Supercenter - Little Rock (S),",#0124,8801 Baseline Rd,Little Rock,AR,72209,(501) 565-0274,-92.376889,34.668366
125,1975-04-01,1999-03-01,1,05,131,2425 SOUTH ZERO ST,Fort Smith,AR,Supercenter,AR,South,Arkansas,72901,"Walmart Supercenter - Fort Smith (S), Gas,",#0125,2425 South Zero St,Fort Smith,AR,72901,(479) 646-6382,-94.407601,35.328885
126,1976-03-01,NA,NA,05,119,700 SOUTH BOWMAN BLV,Little Rock,AR,Wal-Mart,AR,South,Arkansas,72211,"Walmart Supercenter - Little Rock,",#5706,700 S Bowman Rd,Little Rock,AR,72211,(501) 223-9952,-92.409598,34.748207
127,1976-02-01,2005-04-13,1,05,059,1910 MARTIN LUTHER KING BLVD,Malvern,AR,Supercenter,AR,South,Arkansas,72104,"Walmart Supercenter - Malvern, Gas/Diesel,",#0127,1910 Martin Luther King Blvd,Malvern,AR,72104,(501) 337-9485,-92.831622,34.390712
128,1978-08-01,1998-03-01,1,05,031,1911 WEST PARKER RD,Jonesboro,AR,Supercenter,AR,South,Arkansas,72404,"Walmart Supercenter - Jonesboro (W),",#0128,1911 West Parker Rd,Jonesboro,AR,72404,(870) 972-6350,-90.732933,35.816092
129,1975-07-01,1994-03-01,1,40,019,1715 NORTH COMMERCE STREET,Ardmore,OK,Supercenter,OK,South,Oklahoma,73401,"Walmart Supercenter - Ardmore,",#0129,1715 North Commerce St,Ardmore,OK,73401,(580) 226-1257,-97.144399,34.193134
130,1975-07-01,2004-08-25,1,40,101,1000 WEST SHAWNEE ST,Muskogee,OK,Supercenter,OK,South,Oklahoma,74403,"Walmart Supercenter - Muskogee , Gas/Diesel,",#0130,1000 West Shawnee St,Muskogee,OK,74403,(918) 687-0058,-95.373217,35.771408
131,1975-11-01,1990-03-01,1,48,449,2311 SOUTH JEFFERSON,Mt. Pleasant,TX,Supercenter,TX,South,Texas,75455,"Walmart Supercenter - Mount Pleasant, Gas,",#0131,2311 South Jefferson,Mount Pleasant,TX,75455,(903) 572-0018,-94.965537,33.134392
132,1976-02-01,NA,NA,40,073,1213 SOUTH MAIN STREET,Kingfisher,OK,Wal-Mart,OK,South,Oklahoma,73750,"Walmart Supercenter - Kingfisher,",#0132,200 W Starlite Dr,Kingfisher,OK,73750,(405) 375-5743,-97.935077,35.828821
133,1976-05-01,NA,NA,05,081,1040 S CONSTITUTION,Ashdown,AR,Wal-Mart,AR,South,Arkansas,71822,"Walmart Supercenter - Ashdown,",#0133,297 Hwy 32 Bypass E,Ashdown,AR,71822,(870) 898-5126,-94.109939,33.657415
135,1976-04-01,2004-10-27,1,29,117,1000 GRAVES ST.,Chillicothe,MO,Supercenter,MO,Midwest,Missouri,64601,"Walmart Supercenter - Chillicothe ,",#0135,1000 Graves St.,Chillicothe,MO,64601,(660) 646-6000,-93.554927,39.776547
136,1976-04-01,NA,NA,40,071,1219 WEST DOOLIN,Blackwell,OK,Wal-Mart,OK,South,Oklahoma,74631,"Walmart - Blackwell,",#0136,1219 West Doolin,Blackwell,OK,74631,(580) 363-4111,-97.297297,36.810608
137,1976-10-01,1994-03-01,1,40,119,111 NORTH PERKINS ROAD,Stillwater,OK,Supercenter,OK,South,Oklahoma,74075,"Walmart Supercenter - Stillwater , Gas,",#0137,111 N Perkins Rd,Stillwater,OK,74075,(405) 372-2897,-97.049432,36.124628
138,1977-11-01,NA,NA,29,077,1923 EAST KEARNEY,Springfield,MO,Wal-Mart,MO,Midwest,Missouri,65803,"Walmart Supercenter - Springfield,",#0138,1923 East Kearney,Springfield,MO,65803,(417) 865-4545,-93.258463,37.240783
139,1976-07-01,NA,NA,40,087,1620 NORTH GREEN AVENUE,Purcell,OK,Wal-Mart,OK,South,Oklahoma,73080,"Walmart Supercenter - Purcell , Gas/Diesel,",#0139,2015 S Green Ave,Purcell,OK,73080,(405) 527-5621,-97.368975,34.987531
140,1976-09-01,2002-07-17,1,48,005,2500 DANIEL MCCALL DRIVE,Lufkin,TX,Supercenter,TX,South,Texas,75901,"Walmart Supercenter - Lufkin , Gas/Diesel,",#0140,2500 Daniel Mccall Dr,Lufkin,TX,75904,(936) 639-9600,-94.729492,31.29969
141,1976-05-01,1997-03-01,1,05,131,8301 ROGERS AVENUE,Fort Smith,AR,Supercenter,AR,South,Arkansas,72903,"Walmart Supercenter - Fort Smith (E),",#0141,8301 Rogers Ave,Fort Smith,AR,72903,(479) 484-5205,-94.338832,35.349231
143,1976-06-01,2000-03-01,1,21,157,310 WEST 5TH STREET,Benton,KY,Supercenter,KY,South,Kentucky,42025,"Walmart Supercenter - Benton, Gas,",#0143,310 West 5th St,Benton,KY,42025,(270) 527-1605,-88.360894,36.868769
144,1976-09-01,1994-03-01,1,05,143,2875 WEST 6TH STREET,Fayetteville,AR,Supercenter,AR,South,Arkansas,72704,"Walmart Supercenter - Fayetteville, Gas,",#0144,2875 West 6th St,Fayetteville,AR,72704,(479) 582-0428,-94.201064,36.05082
146,1976-03-01,1997-03-01,1,48,459,1923 NORTH WOOD,Gilmer,TX,Supercenter,TX,South,Texas,75644,"Walmart Supercenter - Gilmer ,",#0146,1923 North Wood,Gilmer,TX,75644,(903) 797-6501,-94.938581,32.747214
147,1976-07-01,1995-03-01,1,48,181,401 NORTH US HWY 75,Denison,TX,Supercenter,TX,South,Texas,75020,"Walmart Supercenter - Denison, Gas,",#0147,401 North Us Hwy 75,Denison,TX,75020,(903) 465-9744,-96.587476,33.761346
148,1976-06-01,1996-03-01,1,48,277,3855 LAMAR AVENUE,Paris,TX,Supercenter,TX,South,Texas,75460,"Walmart Supercenter - Paris, Gas,",#0148,3855 Lamar Ave,Paris,TX,75460,(903) 785-7168,-95.50577,33.663287
149,1977-03-01,2000-03-01,1,22,049,184 OLD WINFIELD RD,Jonesboro,LA,Supercenter,LA,South,Louisiana,71251,"Walmart Supercenter - Jonesboro , Gas,",#0149,184 Old Winfield Rd,Jonesboro,LA,71251,(318) 259-4149,-92.706792,32.228002
150,1976-10-01,1998-03-01,1,40,153,3215 WILLIAMS AVENUE,Woodward,OK,Supercenter,OK,South,Oklahoma,73801,"Walmart Supercenter - Woodward, Gas,",#0150,3215 Williams Ave,Woodward,OK,73801,(580) 254-3331,-99.383196,36.412935
151,1977-03-01,1994-03-01,1,40,121,432 SOUTH GEORGE NIGH EXWY,McAlester,OK,Supercenter,OK,South,Oklahoma,74501,"Walmart Supercenter - McAlester , Gas,",#0151,432 South George Nigh Exwy,Mcalester,OK,74501,(918) 423-8585,-95.74222,34.91899
152,1976-12-01,2004-10-27,1,29,099,12862 STATE ROAD 21,De Soto,MO,Supercenter,MO,Midwest,Missouri,63020,"Walmart Supercenter - De Soto,",#0152,12862 State Rd 21,De Soto,MO,63020,(636) 586-6878,-90.572958,38.152711
153,1976-10-01,1994-03-01,1,28,145,202 PARK PLAZA,New Albany,MS,Supercenter,MS,South,Mississippi,38652,"Walmart Supercenter - New Albany , Gas/Diesel,",#0153,202 Park Plaza,New Albany,MS,38652,(662) 534-9374,-89.031514,34.493501
155,1977-08-01,1994-03-01,1,28,137,5219 HWY 51 NORTH,Senatobia,MS,Supercenter,MS,South,Mississippi,38668,"Walmart Supercenter - Senatobia, Gas,",#0155,5219 Hwy 51 North,Senatobia,MS,38668,(662) 562-6202,-89.970634,34.629304
156,1977-01-01,NA,NA,29,155,STATE HWY 84 WEST,Caruthersville,MO,Wal-Mart,MO,Midwest,Missouri,63830,"Walmart - Caruthersville,",#0156,State Hwy 84 West,Caruthersville,MO,63830,(573) 333-1262,-89.66908,36.200696
157,1977-01-01,1994-03-01,1,05,145,3509 EAST RACE AVENUE,Searcy,AR,Supercenter,AR,South,Arkansas,72143,"Walmart Supercenter - Searcy, Gas,",#0157,3509 East Race Ave,Searcy,AR,72143,(501) 268-2207,-91.68787,35.24907
158,1977-05-01,1997-03-01,1,48,147,2021 NORTH HWY 121,Bonham,TX,Supercenter,TX,South,Texas,75418,"Walmart Supercenter - Bonham , Gas/Diesel,",#0158,2021 North Hwy 121,Bonham,TX,75418,(903) 583-9591,-96.193487,33.59651
159,1977-03-01,1998-03-01,1,29,019,415 CONLEY ROAD,Columbia,MO,Supercenter,MO,Midwest,Missouri,65201,"Walmart Supercenter - Columbia,",#0159,415 Conley Rd,Columbia,MO,65201,(573) 499-4935,-92.295834,38.954906
160,1977-01-01,1994-03-01,1,05,135,219 HIGHWAY 412,Ashflat,AR,Supercenter,AR,South,Arkansas,72513,"Walmart Supercenter - Ash Flat , Gas/Diesel,",#0160,219 Hwy 412,Ash Flat,AR,72513,(870) 994-7520,-91.5976,36.2373
161,1977-05-01,2002-02-20,1,47,017,180 VETERANS DRIVE N,Huntingdon,TN,Supercenter,TN,South,Tennessee,38344,"Walmart Supercenter - Huntingdon , Gas/Diesel,",#0161,180 Veterans Dr N,Huntingdon,TN,38344,(731) 986-4439,-88.43786,35.99715
162,1977-06-01,1997-03-01,1,40,015,1201 WEST PETREE RD,Anadarko,OK,Supercenter,OK,South,Oklahoma,73005,"Walmart Supercenter - Anadarko,",#0162,1201 West Petree Rd,Anadarko,OK,73005,(405) 247-2535,-98.262349,35.059464
163,1977-02-01,1993-03-01,1,48,347,4810 NORTH STREET,Nacogdoches,TX,Supercenter,TX,South,Texas,75965,"Walmart Supercenter - Nacogdoches ,",#0163,4810 North St,Nacogdoches,TX,75965,(936) 560-6969,-94.65342,31.650114
164,1977-02-01,NA,NA,28,115,350 WAL-MART CIRCLE,Pontotoc,MS,Wal-Mart,MS,South,Mississippi,38863,"Walmart Supercenter - Pontotoc , Gas/Diesel,",#0164,100 Mccord Rd,Pontotoc,MS,38863,(662) 489-7451,-89.022699,34.285372
165,1977-05-01,1996-03-01,1,48,401,2121 HWY 79 SOUTH,Henderson,TX,Supercenter,TX,South,Texas,75654,"Walmart Supercenter - Henderson , Gas/Diesel,",#0165,2121 Hwy 79 South,Henderson,TX,75654,(903) 657-5707,-94.802251,32.131774
166,1977-03-01,2002-10-30,1,29,215,1433 SO. SAM HOUSTON BLVD,Houston,MO,Supercenter,MO,Midwest,Missouri,65483,"Walmart Supercenter - Houston , Gas/Diesel,",#0166,1433 S Sam Houston Blvd,Houston,MO,65483,(417) 967-3302,-91.96006,37.31438
167,1977-04-01,2005-01-26,1,05,003,910 UNITY ROAD,Crossett,AR,Supercenter,AR,South,Arkansas,71635,"Walmart Supercenter - Crossett , Gas/Diesel,",#0167,910 Unity Rd,Crossett,AR,71635,(870) 364-2165,-91.942048,33.136998
168,1978-02-07,2000-03-01,1,40,143,12101 E 96TH ST. N,Owasso,OK,Supercenter,OK,South,Oklahoma,74055,"Walmart Supercenter - Owasso , Gas/Diesel,",#0168,12101 E 96th St. N,Owasso,OK,74055,(918) 272-6609,-95.838,36.294264
169,1977-09-01,NA,NA,05,085,1400 NORTH CENTER,Lonoke,AR,Wal-Mart,AR,South,Arkansas,72086,"Walmart Supercenter - Wynne , Gas/Diesel,",#0068,800 Hwy 64 East,Wynne,AR,72396,(870) 238-8129,-90.777691,35.252414
170,1977-10-01,1995-03-01,1,22,069,925 KEYSER AVE,Natchitoches,LA,Supercenter,LA,South,Louisiana,71457,"Walmart Supercenter - Natchitoches, Gas,",#0170,925 Keyser Ave,Natchitoches,LA,71457,(318) 352-5607,-93.06655,31.751567
171,1977-11-01,NA,NA,05,103,1270 STATE HWY 4 BYPASS SW,Camden,AR,Wal-Mart,AR,South,Arkansas,71701,"Walmart Supercenter - Camden, Gas/Diesel,",#0171,950 California Ave Sw,Camden,AR,71701,(870) 836-8000,-92.836702,33.568107
172,1977-07-01,1988-03-01,1,29,071,5886 HWY 100,Washington,MO,Supercenter,MO,Midwest,Missouri,63090,"Walmart Supercenter - Washington , Gas/Diesel,",#0172,1701 Aroy Dr,Washington,MO,63090,(636) 239-1993,-90.993845,38.540794
173,1977-10-01,2003-05-21,1,29,221,#1 MEMORIAL DRIVE,Potosi,MO,Supercenter,MO,Midwest,Missouri,63664,"Walmart Supercenter - Potosi , Gas/Diesel,",#0173,1 Memorial Dr,Potosi,MO,63664,(573) 438-5441,-90.772463,37.923917
174,1985-10-15,2005-01-26,1,12,009,2700 CLEARLAKE ROAD,Rockledge,FL,Supercenter,FL,South,Florida,32922,"Walmart Supercenter - Cocoa ,",#0174,2700 Clearlake Rd,Cocoa,FL,32922,(321) 639-1610,-80.754118,28.395162
175,1977-11-01,1996-03-01,1,47,157,560 WEST POPLAR AVE,Collierville,TN,Supercenter,TN,South,Tennessee,38017,"Walmart Supercenter - Collierville ,",#0175,560 West Poplar Ave,Collierville,TN,38017,(901) 854-5100,-89.680998,35.047412
176,1977-07-01,NA,NA,28,139,822 CITY AVENUE SOUTH,Ripley,MS,Wal-Mart,MS,South,Mississippi,38663,"Walmart - Ripley,",#0176,822 City Ave South,Ripley,MS,38663,(662) 837-0014,-88.95042,34.723258
177,1977-11-01,1997-03-01,1,47,079,1210 MINERAL WELL AV,Paris,TN,Supercenter,TN,South,Tennessee,38242,"Walmart Supercenter - Paris,",#0177,1210 Mineral Well Av,Paris,TN,38242,(731) 644-0290,-88.308484,36.282009
178,1977-11-01,1997-03-01,1,40,151,914 E OKLAHOMA BLVD,Alva,OK,Supercenter,OK,South,Oklahoma,73717,"Walmart Supercenter - Alva,",#0178,914 E Oklahoma Blvd,Alva,OK,73717,(580) 327-4021,-98.645167,36.798401
179,1977-02-01,2001-03-14,1,29,077,3520 W SUNSHINE ST.,Springfield,MO,Supercenter,MO,Midwest,Missouri,65807,"Walmart Supercenter - Springfield (W) , Gas/Diesel,",#0179,3520 W Sunshine St.,Springfield,MO,65807,(417) 862-7447,-93.3521,37.18148
180,1978-03-14,1994-03-01,1,48,073,1311 SOUTH JACKSON,Jacksonville,TX,Supercenter,TX,South,Texas,75766,"Walmart Supercenter - Jacksonville , Gas/Diesel,",#0180,1311 South Jackson,Jacksonville,TX,75766,(903) 589-3434,-95.265217,31.951927
181,1978-08-08,2005-05-18,1,48,037,800 JAMES BOWIE DRIVE,New Boston,TX,Supercenter,TX,South,Texas,75570,"Walmart Supercenter - New Boston , Gas/Diesel,",#0181,800 James Bowie Dr,New Boston,TX,75570,(903) 628-5557,-94.403569,33.471825
182,1979-06-01,2001-07-18,1,28,151,1831 S DR MARTIN L. KING BLVD,Greenville,MS,Supercenter,MS,South,Mississippi,38701,"Walmart Supercenter - Greenville , Gas/Diesel,",#0182,1831 S Dr Martin L. King Blvd,Greenville,MS,38701,(662) 332-9026,-91.038752,33.367851
183,1977-10-01,2004-08-25,1,28,159,159 HIGHWAY 15 SOUTH,Louisville,MS,Supercenter,MS,South,Mississippi,39339,"Walmart Supercenter - Louisville , Gas/Diesel,",#0183,159 Hwy 15,Louisville,MS,39339,(662) 773-7823,-89.083568,33.122203
184,1978-02-01,2005-05-25,1,29,095,600 N.E. CORONADO DRIVE,Blue Springs,MO,Supercenter,MO,Midwest,Missouri,64014,"Walmart Supercenter - Blue Springs , Gas/Diesel,",#0184,600 NE Coronado Dr,Blue Springs,MO,64014,(816) 224-4800,-94.254931,39.024952
185,1993-07-21,2002-03-01,1,48,097,1800 LAWRENCE ST.,Gainesville,TX,Supercenter,TX,South,Texas,76240,"Walmart Supercenter - Gainesville , Gas/Diesel,",#0185,1800 Lawrence St.,Gainesville,TX,76240,(940) 668-6898,-97.135682,33.644639
186,1977-11-01,2004-10-27,1,20,015,301 SO. VILLAGE ROAD,El Dorado,KS,Supercenter,KS,Midwest,Kansas,67042,"Walmart Supercenter - El Dorado,",#0186,301 So. Village Rd,El Dorado,KS,67042,(316) 322-8100,-96.891658,37.815626
188,1977-07-01,1994-03-01,1,29,031,3439 WILLIAMS STREET,Cape Girardeau,MO,Supercenter,MO,Midwest,Missouri,63701,"Walmart Supercenter - Cape Girardeau,",#0188,3439 Williams St,Cape Girardeau,MO,63701,(573) 335-4600,-89.584739,37.301211
189,1977-07-01,1993-03-01,1,29,001,2206 NORTH BALTIMORE,Kirksville,MO,Supercenter,MO,Midwest,Missouri,63501,"Walmart Supercenter - Kirksville, Gas,",#0189,2206 North Baltimore,Kirksville,MO,63501,(660) 627-7100,-92.580839,40.216504
190,1977-07-01,1995-03-01,1,29,069,1500 EAST FIRST ST,Kennett,MO,Supercenter,MO,Midwest,Missouri,63857,"Walmart Supercenter - Kennett, Gas,",#0190,1500 East First St,Kennett,MO,63857,(573) 888-2084,-90.037473,36.237805
192,1981-09-15,2002-03-20,1,47,119,2200 BROOKMEAD DRIVE,Columbia,TN,Supercenter,TN,South,Tennessee,38401,"Walmart Supercenter - Columbia,",#0192,2200 Brookmead Dr,Columbia,TN,38401,(931) 881-6892,-87.051627,35.597807
194,1985-01-22,2001-07-18,1,48,201,4900 GARTH ROAD,Baytown,TX,Supercenter,TX,South,Texas,77520,"Walmart Supercenter - Baytown , Gas/Diesel,",#0194,4900 Garth Rd,Baytown,TX,77521,(281) 421-4859,-94.975386,29.776244
195,1977-07-01,NA,NA,29,047,2203 PATSY LANE,Excelsior Springs,MO,Wal-Mart,MO,Midwest,Missouri,64024,"Walmart Supercenter - Excelsior Springs , Gas/Diesel,",#0195,2203 Patsy Lane,Excelsior Springs,MO,64024,(816) 630-1003,-94.265186,39.33046
196,1977-07-01,1993-03-01,1,17,077,1450 EAST MAIN,Carbondale,IL,Supercenter,IL,Midwest,Illinois,62901,"Walmart Supercenter - Carbondale ,",#0196,1450 East Main,Carbondale,IL,62901,(618) 457-2033,-89.186963,37.73577
197,1977-07-01,2003-08-27,1,17,109,1730 E JACKSON ROAD,Macomb,IL,Supercenter,IL,Midwest,Illinois,61455,"Walmart Supercenter - Macomb,",#0197,1730 E Jackson Rd,Macomb,IL,61455,(309) 836-3311,-90.641433,40.460029
198,1977-07-01,2003-04-16,1,17,121,1870 WEST MAIN ST.,Salem,IL,Supercenter,IL,Midwest,Illinois,62881,"Walmart Supercenter - Salem, Gas/Diesel,",#0198,1870 West Main St.,Salem,IL,62881,(618) 548-4383,-88.981278,38.625091
199,1977-07-01,NA,NA,17,107,1501 WOODLAWN ROAD,Lincoln,IL,Wal-Mart,IL,Midwest,Illinois,62656,"Walmart Supercenter - Lincoln,",#0199,825 Malerich Dr,Lincoln,IL,62656,(217) 735-2314,-89.397861,40.155327
200,1977-07-01,NA,NA,17,137,1205 W MORTON ROAD,Jacksonville,IL,Wal-Mart,IL,Midwest,Illinois,62650,"Walmart Supercenter - Jacksonville,",#0200,1941 W Morton Ave,Jacksonville,IL,62650,(217) 245-5146,-90.270231,39.721861
203,1978-08-29,1998-03-01,1,29,115,937 PARK CIRCLE DR,Brookfield,MO,Supercenter,MO,Midwest,Missouri,64628,"Walmart Supercenter - Brookfield,",#0203,937 Park Circle Dr,Brookfield,MO,64628,(660) 258-7416,-93.072707,39.768584
204,1978-02-14,NA,NA,21,033,500 US HWY 62 WEST,Princeton,KY,Wal-Mart,KY,South,Kentucky,42445,"Walmart Supercenter - Princeton,",#0204,1500 Us Hwy 62,Princeton,KY,42445,(270) 365-7692,-87.903253,37.111905
205,1978-03-28,1994-03-01,1,28,099,1002 BEACON STREET,Philadelphia,MS,Supercenter,MS,South,Mississippi,39350,"Walmart Supercenter - Philadelphia, Gas,",#0205,1002 Beacon St,Philadelphia,MS,39350,(601) 656-4166,-89.12754,32.768605
206,1978-03-28,2005-07-20,1,48,085,2041 REDBUD BLVD,McKinney,TX,Supercenter,TX,South,Texas,75069,"Walmart Supercenter - McKinney,",#0206,2041 Redbud Blvd,Mckinney,TX,75069,(972) 542-9585,-96.629853,33.221132
207,1978-03-21,NA,NA,40,117,1004 NORTH BROADWAY,Cleveland,OK,Wal-Mart,OK,South,Oklahoma,74020,"Walmart Supercenter - Cleveland,",#0207,772 N Airport Rd,Cleveland,OK,74020,(918) 358-3553,-96.462655,36.29857
208,1978-04-04,NA,NA,20,021,2970 MILITARY AVENUE,Baxter Springs,KS,Wal-Mart,KS,Midwest,Kansas,66713,"Walmart - Baxter Springs,",#0208,2970 Military Ave,Baxter Springs,KS,66713,(620) 856-2327,-94.739594,37.006827
209,1978-06-01,NA,NA,05,047,1516 NORTH 18TH STREET,Ozark,AR,Wal-Mart,AR,South,Arkansas,72949,"Walmart - Ozark,",#0209,1516 N 18th St,Ozark,AR,72949,(479) 667-2143,-93.844417,35.503679
210,1978-07-18,NA,NA,40,063,500 EAST HIGHWAY 270,Holdenville,OK,Wal-Mart,OK,South,Oklahoma,74848,"Walmart - Holdenville,",#0210,500 East Hwy 270,Holdenville,OK,74848,(405) 379-6688,-96.381471,35.08734
211,1978-09-12,1998-03-01,1,48,217,401 COKE STREET,Hillsboro,TX,Supercenter,TX,South,Texas,76645,"Walmart Supercenter - Hillsboro , Gas/Diesel,",#0211,401 Coke St,Hillsboro,TX,76645,(254) 582-2523,-97.098897,32.004099
212,1977-11-01,1999-03-01,1,40,027,333 INTERSTATE DRIVE,Norman,OK,Supercenter,OK,South,Oklahoma,73069,"Walmart Supercenter - Norman, Gas,",#0212,333 Interstate Dr,Norman,OK,73069,(405) 329-4000,-97.482403,35.221414
213,1978-05-16,1999-03-01,1,17,135,1205 WEST FERDON ST,Litchfield,IL,Supercenter,IL,Midwest,Illinois,62056,"Walmart Supercenter - Litchfield , Gas,",#0213,1205 West Ferdon St,Litchfield,IL,62056,(217) 324-6195,-89.66842,39.18498
214,1978-10-10,1994-03-01,1,48,241,800 WEST GIBSON,Jasper,TX,Supercenter,TX,South,Texas,75951,"Walmart Supercenter - Jasper , Gas/Diesel,",#0214,800 West Gibson,Jasper,TX,75951,(409) 384-1707,-94.015859,30.907312
215,1979-05-15,NA,NA,28,097,620 SOUTH APPLEGATE ST,Winona,MS,Wal-Mart,MS,South,Mississippi,38967,"Walmart - Winona,",#0215,620 South Applegate St,Winona,MS,38967,(662) 283-3814,-89.736577,33.473204
216,1979-03-27,NA,NA,17,199,2705 WALTON WAY,Marion,IL,Wal-Mart,IL,Midwest,Illinois,62959,"Walmart Supercenter - Marion,",#0216,2802 Outer Rd Dr,Marion,IL,62959,(618) 997-5618,-88.97135,37.747135
217,1978-09-05,1999-03-01,1,48,121,801 WEST MAIN,Lewisville,TX,Supercenter,TX,South,Texas,75067,"Walmart Supercenter - Lewisville,",#0217,801 West Main,Lewisville,TX,75067,(972) 436-3099,-97.013377,33.046533
218,1979-04-10,1998-03-01,1,47,109,1017 MULBERRY AVENUE,Selmer,TN,Supercenter,TN,South,Tennessee,38375,"Walmart Supercenter - Selmer, Gas,",#0218,1017 Mulberry Ave,Selmer,TN,38375,(731) 645-7938,-88.573201,35.139889
219,1978-10-03,1993-03-01,1,29,159,3201 WEST BROADWAY,Sedalia,MO,Supercenter,MO,Midwest,Missouri,65301,"Walmart Supercenter - Sedalia, Gas,",#0219,3201 West BRdway,Sedalia,MO,65301,(660) 826-7800,-93.269814,38.708112
220,1978-10-17,1995-03-01,1,48,251,951 SW WILSHIRE BLVD,Burleson,TX,Supercenter,TX,South,Texas,76028,"Walmart Supercenter - Burleson, Gas,",#0220,951 Sw Wilshire Blvd,Burleson,TX,76028,(817) 572-9574,-97.338494,32.528325
221,1978-10-31,1994-03-01,1,40,017,1200 GARTH BROOKS BLVD,Yukon,OK,Supercenter,OK,South,Oklahoma,73099,"Walmart Supercenter - Yukon , Gas,",#0221,1200 Garth Brooks Blvd,Yukon,OK,73099,(405) 350-1900,-97.762504,35.490443
222,1978-12-05,1996-03-01,1,17,157,1410 N MARKET ST,Sparta,IL,Supercenter,IL,Midwest,Illinois,62286,"Walmart Supercenter - Sparta, Gas,",#0222,1410 N Market St,Sparta,IL,62286,(618) 443-5800,-89.702,38.141
224,1978-06-13,1997-03-01,1,17,081,110 DAVIDSON AVENUE,Mount Vernon,IL,Supercenter,IL,Midwest,Illinois,62864,"Walmart Supercenter - Mount Vernon ,",#0224,110 Davidson Ave,Mount Vernon,IL,62864,(618) 244-7119,-88.958161,38.310013
225,1978-10-24,NA,NA,40,099,2108 WEST BROADWAY,Sulphur,OK,Wal-Mart,OK,South,Oklahoma,73086,"Walmart Supercenter - Sulphur,",#0225,2705 W. BRdway,Sulphur,OK,73086,(580) 622-6146,-97.004502,34.504612
226,1978-10-17,1997-03-01,1,48,067,201 US HWY 59 LOOP,Atlanta,TX,Supercenter,TX,South,Texas,75551,"Walmart Supercenter - Atlanta , Gas,",#0226,201 Us Hwy 59 Loop N,Atlanta,TX,75551,(903) 796-7916,-94.183971,33.115498
227,1978-10-10,1995-03-01,1,40,017,2400 SOUTH COUNTRY CLUB ROAD,El Reno,OK,Supercenter,OK,South,Oklahoma,73036,"Walmart Supercenter - El Reno , Gas/Diesel,",#0227,2400 South Country Club Rd,El Reno,OK,73036,(405) 262-7354,-97.971181,35.509341
228,1978-09-19,1995-03-01,1,48,251,1616 WEST HENDERSON,Cleburne,TX,Supercenter,TX,South,Texas,76031,"Walmart Supercenter - Cleburne , Gas/Diesel,",#0228,1616 West Henderson,Cleburne,TX,76031,(817) 645-1575,-97.414529,32.34034
229,1978-10-31,2004-09-15,1,05,111,512 INDUSTRIAL DRIVE,Trumann,AR,Supercenter,AR,South,Arkansas,72472,"Walmart Supercenter - Trumann , Gas/Diesel,",#0229,512 Industrial Park Dr,Trumann,AR,72472,(870) 483-6491,-90.550769,35.681475
230,1978-12-05,NA,NA,05,083,1501 EAST WALNUT STREET,Paris,AR,Wal-Mart,AR,South,Arkansas,72855,"Walmart - Paris,",#0230,1501 East Walnut St,Paris,AR,72855,(479) 963-2152,-93.71619,35.292862
231,1978-09-19,1995-03-01,1,40,123,1419 N. COUNTRY CLUB RD.,Ada,OK,Supercenter,OK,South,Oklahoma,74820,"Walmart Supercenter - Ada , Gas/Diesel,",#0231,1419 N. Country Club Rd.,Ada,OK,74820,(580) 332-2232,-96.655038,34.789203
232,1978-09-19,NA,NA,40,005,1901 SOUTH MISSISSIPPI,Atoka,OK,Wal-Mart,OK,South,Oklahoma,74525,"Walmart - Atoka,",#0232,1901 South Mississippi,Atoka,OK,74525,(580) 889-6676,-96.138045,34.370581
233,1978-11-21,1998-03-01,1,17,181,300 LEIGH AVE,Anna,IL,Supercenter,IL,Midwest,Illinois,62906,"Walmart Supercenter - Anna,",#0233,300 Leigh Ave,Anna,IL,62906,(618) 833-8592,-89.223813,37.462424
234,1978-12-05,2004-03-01,1,29,047,8301 NO. CHURCH ROAD,Liberty,MO,Supercenter,MO,Midwest,Missouri,64158,"Walmart Supercenter - Kansas City, Gas,",#0234,8301 No. Church Rd,Kansas City,MO,64158,(816) 792-4644,-94.460169,39.243312
235,1978-11-28,NA,NA,05,021,1900 WEST MAIN,Corning,AR,Wal-Mart,AR,South,Arkansas,72422,"Walmart - Corning,",#0235,1900 West Main,Corning,AR,72422,(870) 857-6914,-90.595634,36.412104
236,1979-02-01,1998-03-01,1,48,225,1225 E LOOP 304,Crockett,TX,Supercenter,TX,South,Texas,75835,"Walmart Supercenter - Crockett,",#0236,1225 E Loop 304,Crockett,TX,75835,(936) 544-5121,-95.435459,31.320121
237,1978-11-14,NA,NA,17,165,16 ARROWHEAD POINT SHPCNTR,Harrisburg,IL,Wal-Mart,IL,Midwest,Illinois,62946,"Walmart Supercenter - Harrisburg,",#0237,710 S Commercial,Harrisburg,IL,62946,(618) 252-0145,-88.534116,37.727943
238,1979-02-13,1999-03-01,1,47,055,1655 WEST COLLEGE STREET,Pulaski,TN,Supercenter,TN,South,Tennessee,38478,"Walmart Supercenter - Pulaski , Gas,",#0238,1655 West College St,Pulaski,TN,38478,(931) 363-7618,-87.059929,35.202433
239,1979-07-31,1998-03-01,1,28,007,220 VETERAN MEM DR,Kosciusko,MS,Supercenter,MS,South,Mississippi,39090,"Walmart Supercenter - Kosciusko,",#0239,220 Veteran Mem Dr,Kosciusko,MS,39090,(662) 289-3422,-89.567688,33.053484
240,1979-06-19,2000-03-01,1,48,231,2701 HWY 50,Commerce,TX,Supercenter,TX,South,Texas,75428,"Walmart Supercenter - Commerce,",#0240,2701 Hwy 50,Commerce,TX,75428,(903) 886-3108,-95.91275,33.23462
242,1979-09-18,1998-03-01,1,20,121,310 HEDGE LANE,Paola,KS,Supercenter,KS,Midwest,Kansas,66071,"Walmart Supercenter - Paola ,",#0242,310 Hedge Lane,Paola,KS,66071,(913) 294-5400,-94.857207,38.572756
243,1980-10-15,NA,NA,29,183,1971 WENTZVILLE PKWY,Wentzville,MO,Wal-Mart,MO,Midwest,Missouri,63385,"Walmart Supercenter - Wentzville ,",#0243,1971 Wentzville Pkwy,Wentzville,MO,63385,(636) 327-5155,-90.877694,38.814016
244,1979-07-31,1999-03-01,1,22,127,5940 HWY 167 NORTH,Winnfield,LA,Supercenter,LA,South,Louisiana,71483,"Walmart Supercenter - Winnfield, Gas,",#0244,5940 Hwy 167 North,Winnfield,LA,71483,(318) 628-2194,-92.65567,31.950114
246,1979-09-18,2005-08-24,1,40,113,823 WEST ROGERS BLVD,Skiatook,OK,Supercenter,OK,South,Oklahoma,74070,"Walmart Supercenter - Skiatook , Gas/Diesel,",#0246,700 West Rogers Blvd,Skiatook,OK,74070,(918) 396-1244,-96.011126,36.369903
247,1979-03-13,NA,NA,40,111,605 EAST MAIN,Henryetta,OK,Wal-Mart,OK,South,Oklahoma,74437,"Walmart - Henryetta,",#0247,605 East Main,Henryetta,OK,74437,(918) 652-9676,-95.974772,35.439663
248,1979-08-28,2000-03-01,1,48,293,1406 EAST MILAM,Mexia,TX,Supercenter,TX,South,Texas,76667,"Walmart Supercenter - Mexia, Gas,",#0248,1406 East Milam,Mexia,TX,76667,(254) 562-3831,-96.456169,31.684101
249,1979-03-06,2000-03-01,1,48,291,831 HWY 59 SOUTH,Cleveland,TX,Supercenter,TX,South,Texas,77327,"Walmart Supercenter - Cleveland , Gas/Diesel,",#0249,831 Hwy 59 South,Cleveland,TX,77327,(281) 592-2654,-95.097937,30.334778
250,1979-03-27,2003-10-29,1,29,015,103 WEST POLK ST,Warsaw,MO,Supercenter,MO,Midwest,Missouri,65355,"Walmart Supercenter - Warsaw , Gas/Diesel,",#0250,103 West Polk St,Warsaw,MO,65355,(660) 438-7394,-93.371369,38.262501
251,1979-07-10,1994-03-01,1,48,499,135 NE LOOP 564,Mineola,TX,Supercenter,TX,South,Texas,75773,"Walmart Supercenter - Mineola, Gas,",#0251,135 NE Loop 564,Mineola,TX,75773,(903) 569-0180,-95.482913,32.689649
252,1980-03-18,1999-03-01,1,17,145,215 GRANT WAY,Du Quoin,IL,Supercenter,IL,Midwest,Illinois,62832,"Walmart Supercenter - Du Quoin,",#0252,215 Grant Way,Du Quoin,IL,62832,(618) 542-8438,-89.237145,37.997728
253,1986-12-30,1997-03-01,1,17,083,1316 SOUTH STATE STREET,Jerseyville,IL,Supercenter,IL,Midwest,Illinois,62052,"Walmart Supercenter - Jerseyville,",#0253,1316 South State St,Jerseyville,IL,62052,(618) 498-7744,-90.317861,39.104179
254,1979-11-13,1998-03-01,1,17,159,1001 NORTH WEST,Olney,IL,Supercenter,IL,Midwest,Illinois,62450,"Walmart Supercenter - Olney,",#0254,1001 North West,Olney,IL,62450,(618) 395-7317,-88.09546,38.739253
256,1979-08-21,NA,NA,17,119,400 JUNCTION DRIVE,Glen Carbon,IL,Wal-Mart,IL,Midwest,Illinois,62034,"Walmart - Glen Carbon,",#0256,400 Junction Dr,Glen Carbon,IL,62034,(618) 692-0550,-89.953591,38.775339
257,1979-10-30,1999-03-01,1,21,225,901 U.S. HWY 60 EAST,Morganfield,KY,Supercenter,KY,South,Kentucky,42437,"Walmart Supercenter - Morganfield,",#0257,901 U.s. Hwy 60 East,Morganfield,KY,42437,(270) 389-1828,-87.900651,37.68921
258,1980-02-12,1994-03-01,1,28,081,3929 N GLOSTER STREET,Tupelo,MS,Supercenter,MS,South,Mississippi,38804,"Walmart Supercenter - Tupelo,",#0258,3929 N Gloster St,Tupelo,MS,38804,(662) 840-8401,-88.708627,34.308797
259,1979-08-28,1996-03-01,1,48,397,782 INTERSTATE 30,Rockwall,TX,Supercenter,TX,South,Texas,75087,"Walmart Supercenter - Rockwall , Gas/Diesel,",#0259,782 Interstate 30,Rockwall,TX,75087,(972) 771-8309,-96.462092,32.901238
260,1979-07-17,1996-03-01,1,48,139,1200 NO. HWY 77,Waxahachie,TX,Supercenter,TX,South,Texas,75165,"Walmart Supercenter - Waxahachie, Gas,",#0260,1200 N Hwy 77,Waxahachie,TX,75165,(972) 937-3460,-96.839013,32.417079
261,1981-12-01,2001-05-16,1,05,051,4019 CENTRAL AVENUE,Hot Springs,AR,Supercenter,AR,South,Arkansas,71913,"Walmart Supercenter - Hot Springs , Gas/Diesel,",#0261,4019 Central Ave,Hot Springs,AR,71913,(501) 623-7605,-93.061684,34.454755
262,1979-07-31,2004-01-28,1,17,055,919 GIACONE DRIVE,Benton,IL,Supercenter,IL,Midwest,Illinois,62812,"Walmart Supercenter - Benton , Gas/Diesel,",#0262,919 Giacone Dr,Benton,IL,62812,(618) 439-9453,-88.936637,38.000073
264,1979-06-26,1993-03-01,1,47,043,175 BEASLEY DRIVE,Dickson,TN,Supercenter,TN,South,Tennessee,37055,"Walmart Supercenter - Dickson , Gas/Diesel,",#0264,175 Beasley Dr,Dickson,TN,37055,(615) 446-4588,-87.380016,36.060513
265,1979-09-25,1997-03-01,1,48,257,1900 WEST MOORE AVE,Terrell,TX,Supercenter,TX,South,Texas,75160,"Walmart Supercenter - Terrell , Gas,",#0265,1900 West Moore Ave,Terrell,TX,75160,(972) 563-7638,-96.305298,32.739049
266,1980-06-24,2003-10-29,1,48,439,1601 WEST STATE HIGHWAY 114,Grapevine,TX,Supercenter,TX,South,Texas,76051,"Walmart Supercenter - Grapevine,",#0266,1601 West State Hwy 114,Grapevine,TX,76051,(817) 421-4770,-97.100244,32.930967
267,1980-05-01,1999-03-01,1,29,097,1212 SOUTH MADISON,Webb City,MO,Supercenter,MO,Midwest,Missouri,64870,"Walmart Supercenter - Webb City , Gas,",#0267,1212 South Madison,Webb City,MO,64870,(417) 673-8288,-94.4773,37.133522
268,1979-10-23,2002-10-16,1,47,071,175 J.I. BELL LANE,Savannah,TN,Supercenter,TN,South,Tennessee,38372,"Walmart Supercenter - Savannah , Gas/Diesel,",#0268,175 Ji Bell Lane,Savannah,TN,38372,(731) 925-3020,-88.215479,35.224383
269,1979-10-29,1997-03-01,1,40,031,1002 NW SHERIDAN RD,Lawton,OK,Supercenter,OK,South,Oklahoma,73505,"Walmart Supercenter - Lawton,",#0269,1002 NW Sheridan Rd,Lawton,OK,73505,(580) 355-9070,-98.42344,34.618618
271,1979-08-07,2004-08-25,1,48,337,8420 US HWY 287 NO.,Bowie,TX,Supercenter,TX,South,Texas,76230,"Walmart Supercenter - Bowie , Gas/Diesel,",#0271,1341 Hwy 287 N.,Bowie,TX,76230,(940) 872-1166,-97.83698,33.540091
272,1979-08-21,2001-03-14,1,47,187,3600 MALLORY LANE,Franklin,TN,Supercenter,TN,South,Tennessee,37067,"Walmart Supercenter - Franklin,",#0272,3600 Mallory Lane,Franklin,TN,37067,(615) 771-0929,-86.820213,35.939638
273,1979-07-03,1999-03-01,1,28,057,100 INTERCHANGE DRIVE,Fulton,MS,Supercenter,MS,South,Mississippi,38843,"Walmart Supercenter - Fulton , Gas/Diesel,",#0273,100 Interchange Dr,Fulton,MS,38843,(662) 862-2143,-88.398485,34.241788
274,1979-08-21,NA,NA,28,141,1110 BATTLEGROUND DRIVE,Iuka,MS,Wal-Mart,MS,South,Mississippi,38852,"Walmart - Iuka,",#0274,1110 Battleground Dr,Iuka,MS,38852,(662) 423-3054,-88.20387,34.804264
275,1979-10-23,1995-03-01,1,48,373,1620 WEST CHURCH,Livingston,TX,Supercenter,TX,South,Texas,77351,"Walmart Supercenter - Livingston,",#0275,1620 West Church,Livingston,TX,77351,(936) 327-6370,-94.955387,30.71566
276,1981-02-18,NA,NA,40,061,OKLAHOMA HWY 9 EAST,Stigler,OK,Wal-Mart,OK,South,Oklahoma,74462,"Walmart Supercenter - Stigler,",#0276,1312 E Main,Stigler,OK,74462,(918) 967-4673,-95.109104,35.253758
277,1980-03-04,1995-03-01,1,40,027,501 SW 19TH STREET,Moore,OK,Supercenter,OK,South,Oklahoma,73160,"Walmart Supercenter - Moore, Gas,",#0277,501 Sw 19th St,Moore,OK,73160,(405) 790-0021,-97.492824,35.321326
279,1980-02-12,2004-03-17,1,05,133,926 E. COLLIN RAYE DR.,De Queen,AR,Supercenter,AR,South,Arkansas,71832,"Walmart Supercenter - De Queen , Gas/Diesel,",#0279,926 E. Collin Raye Dr.,De Queen,AR,71832,(870) 642-2794,-94.318657,34.044242
280,1979-10-30,2005-03-23,1,48,331,709 WEST HWY 79,Rockdale,TX,Supercenter,TX,South,Texas,76567,"Walmart Supercenter - Rockdale , Gas/Diesel,",#0280,709 West Hwy 79,Rockdale,TX,76567,(512) 446-5851,-97.032494,30.643188
281,1979-10-30,1998-03-01,1,05,023,1500 HWY 25B NORTH,Heber Springs,AR,Supercenter,AR,South,Arkansas,72543,"Walmart Supercenter - Heber Springs, Gas,",#0281,1500 Hwy 25b North,Heber Springs,AR,72543,(501) 362-8188,-93.844546,35.503748
282,1980-09-30,1999-03-01,1,21,213,1550 NASHVILLE ROAD,Franklin,KY,Supercenter,KY,South,Kentucky,42134,"Walmart Supercenter - Franklin,",#0282,1550 Nashville Rd,Franklin,KY,42134,(270) 586-9281,-86.571846,36.695295
283,1980-02-26,NA,NA,48,361,795 TX AVE,Bridge City,TX,Wal-Mart,TX,South,Texas,77611,"Walmart - Bridge City,",#0283,795 Texas Ave,Bridge City,TX,77611,(409) 735-2417,-93.844367,30.024158
284,1979-09-25,1998-03-01,1,48,439,930 N WALNUT CREEK DRIVE,Mansfield,TX,Supercenter,TX,South,Texas,76063,"Walmart Supercenter - Mansfield, Gas,",#0284,930 N Walnut Creek Suite#800,Mansfield,TX,76063,(817) 473-1189,-97.130685,32.57645
285,1979-09-25,1994-03-01,1,48,471,141 INTER STATE 45 SOUTH,Huntsville,TX,Supercenter,TX,South,Texas,77320,"Walmart Supercenter - Huntsville, Gas,",#0285,141 Interstate 45 South,Huntsville,TX,77340,(936) 293-1066,-95.569167,30.713915
286,1979-12-04,2002-10-16,1,48,139,700 EAST ENNIS AVE.,Ennis,TX,Supercenter,TX,South,Texas,75119,"Walmart Supercenter - Ennis, Gas/Diesel,",#0286,700 East Ennis Ave.,Ennis,TX,75119,(972) 875-9671,-96.620236,32.33258
287,1979-11-27,1994-03-01,1,01,127,1801 HWY 78 EAST,Jasper,AL,Supercenter,AL,South,Alabama,35501,"Walmart Supercenter - Jasper ,",#0287,1801 Hwy 78 East,Jasper,AL,35501,(205) 384-1100,-87.254556,33.843721
288,1979-10-30,2005-01-26,1,48,457,115 COBB MILL ROAD,Woodville,TX,Supercenter,TX,South,Texas,75979,"Walmart Supercenter - Woodville,",#0288,115 Cobb Mill Rd,Woodville,TX,75979,(409) 283-8248,-94.418385,30.763894
289,1979-10-30,NA,NA,05,041,US 65 SOUTH,McGehee,AR,Wal-Mart,AR,South,Arkansas,71654,"Walmart - Mcgehee,",#0289,US 65 South,Mcgehee,AR,71654,(870) 222-4184,-91.382601,33.603935
290,1980-07-01,NA,NA,48,177,US 90A & ROBERTSON ST,Gonzales,TX,Wal-Mart,TX,South,Texas,78629,"Walmart Supercenter - Gonzales,",#0290,1114 E Sarah Dewitt Dr,Gonzales,TX,78629,(830) 672-7573,-97.443542,29.521607
292,1980-08-12,NA,NA,48,055,1703 SOUTH COLORADO STREET,Lockhart,TX,Wal-Mart,TX,South,Texas,78644,"Walmart Supercenter - Lockhart,",#0292,1904 South Colorado St,Lockhart,TX,78644,(512) 398-2333,-97.666238,29.856855
293,1980-05-28,NA,NA,48,185,1712 EAST WASHINGTON,Navasota,TX,Wal-Mart,TX,South,Texas,77868,"Walmart - Navasota,",#0293,1712 East Washington,Navasota,TX,77868,(936) 825-7541,-96.071984,30.395592
294,1980-07-29,1997-03-01,1,21,177,1725 WEST EVERELY BROTHERS BLV,Central City,KY,Supercenter,KY,South,Kentucky,42330,"Walmart Supercenter - Central City,",#0294,1725 W Everly Brothers Blvd,Central City,KY,42330,(270) 754-4512,-87.144058,37.27236
295,1980-04-01,1995-03-01,1,29,189,131 ERKA TWN CNTR DR,Eureka,MO,Supercenter,MO,Midwest,Missouri,63025,"Walmart Supercenter - Eureka ,",#0295,131 Eureka Town Center Dr,Eureka,MO,63025,(636) 587-9836,-90.656595,38.505584
296,1980-08-28,2005-10-26,1,05,149,1172 NO. HWY 7,Dardanelle,AR,Supercenter,AR,South,Arkansas,72834,"Walmart Supercenter - Dardanelle,",#0296,1172 No. Hwy 7,Dardanelle,AR,72834,(479) 229-2502,-93.165338,35.217849
297,1981-09-01,2000-03-01,1,48,339,23561 US HWY 59,Porter,TX,Supercenter,TX,South,Texas,77365,"Walmart Supercenter - Porter,",#0297,23561 Us Hwy 59,Porter,TX,77365,(281) 354-3400,-95.234182,30.106277
298,1980-08-12,2003-03-19,1,01,095,1972 HWY 431,Boaz,AL,Supercenter,AL,South,Alabama,35957,"Walmart Supercenter - Boaz , Gas/Diesel,",#0298,1972 Hwy 431,Boaz,AL,35957,(256) 593-0195,-86.154183,34.214719
299,1980-09-30,1995-03-01,1,21,227,150 WALTON AVENUE,Bowling Green,KY,Supercenter,KY,South,Kentucky,42104,"Walmart Supercenter - Bowling Green,",#0299,150 Walton Ave,Bowling Green,KY,42104,(270) 781-7903,-86.433797,36.9498
300,1980-10-14,2005-01-26,1,01,015,1625 PELHAM SOUTH,Jacksonville,AL,Supercenter,AL,South,Alabama,36265,"Walmart Supercenter - Jacksonville , Gas/Diesel,",#0300,1625 Pelham South,Jacksonville,AL,36265,(256) 435-8100,-85.764007,33.788231
301,1980-08-12,2005-04-13,1,01,055,340 EAST MEIGHAN BLVD,Gadsden,AL,Supercenter,AL,South,Alabama,35903,"Walmart Supercenter - Gadsden ,",#0301,340 East Meighan Blvd,Gadsden,AL,35903,(256) 547-2637,-85.98755,34.01215
302,1980-09-30,NA,NA,17,077,550 E. INDUSTRIAL PARK RD #11,Murphysboro,IL,Wal-Mart,IL,Midwest,Illinois,62966,"Walmart Supercenter - Murphysboro,",#0302,6495 Country Club Rd,Murphysboro,IL,62966,(618) 684-5041,-89.282708,37.76035
303,1980-09-03,2004-08-25,1,28,093,950 MACKIE DRIVE,Holly Springs,MS,Supercenter,MS,South,Mississippi,38635,"Walmart Supercenter - Holly Springs, Gas,",#0303,950 Mackie Dr,Holly Springs,MS,38635,(662) 252-2211,-89.45808,34.746637
304,1979-10-23,2002-07-17,1,47,147,3360 TOM AUSTIN HWY,Springfield,TN,Supercenter,TN,South,Tennessee,37172,"Walmart Supercenter - Springfield , Gas/Diesel,",#0304,3360 Tom Austin Hwy,Springfield,TN,37172,(615) 384-9561,-86.887849,36.4835
305,1979-11-20,1999-03-01,1,28,079,905 HWY 16 WEST,Carthage,MS,Supercenter,MS,South,Mississippi,39051,"Walmart Supercenter - Carthage, Gas,",#0305,905 Hwy 16 West,Carthage,MS,39051,(601) 267-8374,-89.547348,32.72674
306,1980-02-26,2003-04-16,1,01,095,1450 NO. BRINDLEE MTN. PKWY,Arab,AL,Supercenter,AL,South,Alabama,35016,"Walmart Supercenter - Arab , Gas/Diesel,",#0306,1450 N Brindlee Mountain Pk,Arab,AL,35016,(256) 586-8168,-86.500972,34.341907
307,1982-11-16,1995-03-01,1,22,073,1025 GLENWOOD DRIVE,West Monroe,LA,Supercenter,LA,South,Louisiana,71291,"Walmart Supercenter - West Monroe, Gas,",#0307,1025 Glenwood Dr,West Monroe,LA,71291,(318) 322-0127,-92.155652,32.508776
308,1981-02-10,2001-03-14,1,47,031,2518 HILLSBORO BLVD,Manchester,TN,Supercenter,TN,South,Tennessee,37355,"Walmart Supercenter - Manchester , Gas/Diesel,",#0308,2518 Hillsboro Blvd,Manchester,TN,37355,(941) 728-6000,-86.046562,35.453972
309,1980-10-28,2001-03-14,1,22,113,3005 CHARITY ST,Abbeville,LA,Supercenter,LA,South,Louisiana,70510,"Walmart Supercenter - Batesville, Gas,",#0119,3150 Harrison St,Batesville,AR,72501,(870) 793-9004,-91.613873,35.763584
310,1980-09-30,1996-03-01,1,22,001,729 ODDFELLOWS RD.,Crowley,LA,Supercenter,LA,South,Louisiana,70526,"Walmart Supercenter - Crowley , Gas,",#0310,729 Oddfellows Rd.,Crowley,LA,70526,(337) 783-6387,-92.364546,30.232139
311,1980-10-13,NA,NA,22,101,200 NORTHWEST BLVD,Franklin,LA,Wal-Mart,LA,South,Louisiana,70538,"Walmart - Franklin,",#0311,200 Northwest Blvd,Franklin,LA,70538,(337) 828-2418,-91.514403,29.81317
312,1980-11-18,2005-07-20,1,22,039,891 E LA SALLE ST,Ville Platte,LA,Supercenter,LA,South,Louisiana,70586,"Walmart Supercenter - Ville Platte , Gas/Diesel,",#0312,891 E La Salle St,Ville Platte,LA,70586,(337) 363-5623,-92.261308,30.686678
314,1979-11-20,1996-03-01,1,47,103,1224 HUNTSVILLE WAY,Fayetteville,TN,Supercenter,TN,South,Tennessee,37334,"Walmart Supercenter - Fayetteville, Gas,",#0314,1224 Huntsville Way,Fayetteville,TN,37334,(931) 433-3010,-86.565714,35.136825
315,1980-10-14,1996-03-01,1,01,009,2453 2ND AVENUE EAST,Oneonta,AL,Supercenter,AL,South,Alabama,35121,"Walmart Supercenter - Oneonta ,",#0315,2453 2nd Ave East,Oneonta,AL,35121,(205) 625-6474,-86.447084,33.971806
316,1980-11-18,2004-08-25,1,01,055,973 GILBERT FERRY ROAD SE,Attalla,AL,Supercenter,AL,South,Alabama,35954,"Walmart Supercenter - Attalla (Southwest),",#0316,973 Gilbert Ferry Rd SE,Attalla,AL,35954,(256) 538-3811,-86.093527,33.994538
317,1981-09-15,2004-05-19,1,17,051,201 NO. MATTES AVENUE,Vandalia,IL,Supercenter,IL,Midwest,Illinois,62471,"Walmart Supercenter - Vandalia, Gas/Diesel,",#0317,201 No. Mattes Ave,Vandalia,IL,62471,(618) 283-4777,-89.134356,38.966385
318,1980-04-15,2000-03-01,1,05,019,109 W.P. MALONE DR,Arkadelphia,AR,Supercenter,AR,South,Arkansas,71923,"Walmart Supercenter - Arkadelphia,",#0318,109 W P Malone Dr,Arkadelphia,AR,71923,(870) 246-2459,-93.095638,34.119748
319,1980-06-24,2000-03-01,1,29,037,2015 WEST FOXWOOD DR,Raymore,MO,Supercenter,MO,Midwest,Missouri,64083,"Walmart Supercenter - Raymore/belton,",#0319,2015 West Foxwood Dr,Raymore/belton,MO,64083,(816) 322-5455,-94.495821,38.81186
320,1980-10-14,NA,NA,48,145,TEXAS HWY 6 & 7 EAST BYPASS,Marlin,TX,Wal-Mart,TX,South,Texas,76661,"Walmart - Marlin,",#0320,Texas Hwy 6 & 7 East Bypass,Marlin,TX,76661,(254) 883-5556,-96.875953,31.306307
321,1980-11-11,1995-03-01,1,48,477,203 US LOOP 290 WEST,Brenham,TX,Supercenter,TX,South,Texas,77833,"Walmart Supercenter - Brenham, Gas,",#0321,203 Us Loop 290 West,Brenham,TX,77833,(979) 836-1118,-96.393888,30.14038
322,1982-06-29,1994-03-01,1,48,041,2200 BRIARCREST DRVE,Bryan,TX,Supercenter,TX,South,Texas,77802,"Walmart Supercenter - Bryan, Gas,",#0322,2200 Briarcrest Dr,Bryan,TX,77802,(979) 776-6441,-96.330206,30.658846
323,1980-09-03,NA,NA,22,031,1043 WASHINGTON,Mansfield,LA,Wal-Mart,LA,South,Louisiana,71052,"Walmart Supercenter - Mansfield,",#0323,7292 Hwy 509,Mansfield,LA,71052,(318) 872-5711,-93.720149,32.026034
324,1981-11-03,NA,NA,40,037,HWY 16 & 66 & 48,Bristow,OK,Wal-Mart,OK,South,Oklahoma,74010,"Walmart Supercenter - Bristow,",#0324,105 W Hwy 16,Bristow,OK,74010,(918) 367-3335,-96.396083,35.842341
325,1980-10-14,2001-04-18,1,29,177,908 WALTON WAY,Richmond,MO,Supercenter,MO,Midwest,Missouri,64085,"Walmart Supercenter - Richmond,",#0325,908 So. Spartan Dr.,Richmond,MO,64085,(816) 776-5834,-93.962248,39.263502
326,1980-10-21,NA,NA,29,107,HWY 13 & 19TH STREET,Higginsville,MO,Wal-Mart,MO,Midwest,Missouri,64037,"Walmart - Higginsville,",#0326,1180 W 19th St,Higginsville,MO,64037,(660) 584-7717,-93.736797,39.077437
327,1980-08-05,NA,NA,40,041,1107 SOUTH MAIN STREET,Jay,OK,Wal-Mart,OK,South,Oklahoma,74346,"Walmart - Jay,",#0327,1107 South Main St,Jay,OK,74346,(918) 253-4861,-94.805747,36.418926
328,1981-04-21,1997-03-01,1,17,133,961 N MARKET STREET,Waterloo,IL,Supercenter,IL,Midwest,Illinois,62298,"Walmart Supercenter - Waterloo,",#0328,961 N Market St,Waterloo,IL,62298,(618) 939-3416,-90.156365,38.358878
329,1980-04-15,2005-09-07,1,01,015,5560 MCCLELLAN BLVD,Anniston,AL,Supercenter,AL,South,Alabama,36206,"Walmart Supercenter - Anniston, Gas,",#0329,5560 Mcclellan Blvd,Anniston,AL,36206,(256) 820-3326,-85.819395,33.719758
330,1980-11-11,1994-03-01,1,48,469,9002 NORTH NAVARRO,Victoria,TX,Supercenter,TX,South,Texas,77904,"Walmart Supercenter - Victoria,",#0330,9002 North Navarro,Victoria,TX,77904,(361) 573-0041,-96.994833,28.878357
331,1981-02-10,1995-03-01,1,22,019,525 NORTH CITY SERVICE HWY,Sulphur,LA,Supercenter,LA,South,Louisiana,70663,"Walmart Supercenter - Sulphur, Gas,",#0331,525 North City Service Hwy,Sulphur,LA,70663,(337) 625-2849,-93.326803,30.232928
332,1981-10-13,1995-03-01,1,01,089,6140A UNIV DRIVE,Huntsville,AL,Supercenter,AL,South,Alabama,35806,"Walmart Supercenter - Huntsville,",#0332,6140a Univ Dr,Huntsville,AL,35806,(256) 837-7272,-86.675545,34.745947
333,1981-02-03,2000-03-01,1,21,183,1701 NORTH MAIN,Beaver Dam,KY,Supercenter,KY,South,Kentucky,42320,"Walmart Supercenter - Beaver Dam, Gas,",#0333,1701 North Main,Beaver Dam,KY,42320,(270) 274-9608,-86.881205,37.429075
334,1980-11-11,NA,NA,17,117,1030 W MAIN,Carlinville,IL,Wal-Mart,IL,Midwest,Illinois,62626,"Walmart Supercenter - Carlinville,",#0334,18600 Shipman Rd,Carlinville,IL,62626,(217) 854-4402,-89.895091,39.268261
335,1980-11-11,1995-03-01,1,47,113,2196 EMPORIUM DRIVE,Jackson,TN,Supercenter,TN,South,Tennessee,38305,"Walmart Supercenter - Jackson,",#0335,2196 Emporium Dr,Jackson,TN,38305,(731) 664-1157,-88.852553,35.668305
336,1980-08-04,NA,NA,05,053,1308 SOUTH ROCK STREET,Sheridan,AR,Wal-Mart,AR,South,Arkansas,72150,"Walmart Supercenter - Sheridan , Gas/Diesel,",#0336,1308 South Rock St,Sheridan,AR,72150,(870) 942-7171,-92.397062,34.290608
337,1980-11-18,2005-08-24,1,29,123,1025 WALTON DRIVE,Fredericktown,MO,Supercenter,MO,Midwest,Missouri,63645,"Walmart Supercenter - Fredericktown  , Gas/Diesel,",#0337,1025 Walton Dr,Fredericktown,MO,63645,(573) 783-5581,-90.32055,37.558986
338,1980-09-09,2004-07-21,1,29,011,29 S.W. 1ST LANE,Lamar,MO,Supercenter,MO,Midwest,Missouri,64759,"Walmart Supercenter - Lamar , Gas/Diesel,",#0338,29 Sw 1st Lane,Lamar,MO,64759,(417) 682-5516,-94.301298,37.4971
339,1980-11-18,NA,NA,05,039,1123 HIGHWAY 79 / 167 BYPASS,Fordyce,AR,Wal-Mart,AR,South,Arkansas,71742,"Walmart - Fordyce,",#0339,1123 Hwy 79 / 167 Bypass,Fordyce,AR,71742,(870) 352-5167,-92.435532,33.820904
340,1981-06-30,NA,NA,40,091,1110 WEST GENTRY,Checotah,OK,Wal-Mart,OK,South,Oklahoma,74426,"Walmart Supercenter - Checotah,",#0340,131 Paul Carr Dr,Checotah,OK,74426,(918) 473-2201,-95.534178,35.4699
341,1980-11-18,2005-04-13,1,20,117,1174 PONY EXPRESS HWY,Marysville,KS,Supercenter,KS,Midwest,Kansas,66508,"Walmart Supercenter - Marysville,",#0341,1174 Pony Express Hwy,Marysville,KS,66508,(785) 562-2390,-96.604189,39.84256
342,1980-11-18,NA,NA,20,013,2207 IOWA,Hiawatha,KS,Wal-Mart,KS,Midwest,Kansas,66434,"Walmart Supercenter - Hiawatha,",#0342,701 Hopi Dr,Hiawatha,KS,66434,(785) 742-7445,-95.56143,39.846147
343,1981-06-02,1999-03-01,1,17,021,1530 W. SPRINGFIELD RD,Taylorville,IL,Supercenter,IL,Midwest,Illinois,62568,"Walmart Supercenter - Taylorville,",#0343,1530 W. Springfield Rd,Taylorville,IL,62568,(217) 287-7219,-89.314122,39.569756
344,1981-10-20,2004-03-17,1,48,481,3413 WEST LOOP,El Campo,TX,Supercenter,TX,South,Texas,77437,"Walmart Supercenter - El Campo,",#0344,3413 West Loop,El Campo,TX,77437,(979) 543-7286,-96.291286,29.216721
345,1982-08-03,1994-03-01,1,48,001,2223 SOUTH LOOP 256,Palestine,TX,Supercenter,TX,South,Texas,75801,"Walmart Supercenter - Palestine, Gas,",#0345,2223 South Loop 256,Palestine,TX,75801,(903) 729-4441,-95.616141,31.735491
346,1980-12-02,NA,NA,20,015,1618 NORTH OHIO STREET,Augusta,KS,Wal-Mart,KS,Midwest,Kansas,67010,"Walmart Supercenter - Augusta,",#0346,719 West 7th Ave,Augusta,KS,67010,(316) 775-2254,-96.985393,37.678149
347,1982-02-02,2006-01-31,1,28,133,633 HIGHWAY 82 WEST,Indianola,MS,Supercenter,MS,South,Mississippi,38751,"Walmart Supercenter - Indianola , Gas/Diesel,",#0347,633 Hwy 82 East,Indianola,MS,38751,(662) 887-3320,-90.662919,33.457943
348,1980-11-18,1994-03-01,1,05,043,427 HWY 425 NORTH,Monticello,AR,Supercenter,AR,South,Arkansas,71655,"Walmart Supercenter - Monticello, Gas,",#0348,427 Hwy 425 North,Monticello,AR,71655,(870) 367-0409,-91.803881,33.635713
350,1984-10-30,2005-04-13,1,31,185,101 EAST DAVID DRIVE,York,NE,Supercenter,NE,Midwest,Nebraska,68467,"Walmart Supercenter - York,",#0350,101 East David Dr,York,NE,68467,(402) 362-3366,-97.594519,40.827703
352,1980-11-18,NA,NA,17,157,HWY 150/2206 STATE ST,Chester,IL,Wal-Mart,IL,Midwest,Illinois,62233,"Walmart - Chester,",#0352,Hwy 150/2206 State St,Chester,IL,62233,(618) 826-5041,-89.804931,37.925582
353,1981-06-02,2005-10-26,1,48,503,2121 HWY 16 SOUTH,Graham,TX,Supercenter,TX,South,Texas,76450,"Walmart Supercenter - Graham , Gas/Diesel,",#0353,2121 Hwy 16 South,Graham,TX,76450,(940) 549-7714,-98.581658,33.082089
354,1981-06-30,NA,NA,29,073,1208 WEST HIGHWSY 28,Owensville,MO,Wal-Mart,MO,Midwest,Missouri,65066,"Walmart Supercenter - Owensville,",#0354,1888 Hwy 28 E,Owensville,MO,65066,(573) 437-4156,-91.482288,38.353809
355,1980-11-18,2002-05-15,1,01,081,2900 PEPPERRELL PKWY,Opelika,AL,Supercenter,AL,South,Alabama,36801,"Walmart Supercenter - Opelika , Gas/Diesel,",#0355,2900 Pepperrell Pkwy.,Opelika,AL,36801,(334) 745-9333,-85.421653,32.637052
356,1981-09-01,2000-03-01,1,01,081,1717 SOUTH COLLEGE STREET,Auburn,AL,Supercenter,AL,South,Alabama,36830,"Walmart Supercenter - Auburn, Gas,",#0356,1717 South College St,Auburn,AL,36830,(334) 821-2493,-85.497471,32.571045
357,1981-07-21,NA,NA,29,141,PO BOX 12 1003 WEST NEWTON,Versailles,MO,Wal-Mart,MO,Midwest,Missouri,65084,"Walmart Supercenter - Versailles,",#0357,1003 W Newton St,Versailles,MO,65084,(573) 378-4668,-92.858604,38.433437
358,1981-06-02,NA,NA,05,033,200 HIGHWAY 64 WEST,Alma,AR,Wal-Mart,AR,South,Arkansas,72921,"Walmart Supercenter - Alma , Gas/Diesel,",#0358,367 W Cherry St,Alma,AR,72921,(479) 632-4585,-94.229055,35.479555
359,1981-11-17,1998-03-01,1,05,143,3919 NO. MALL AVE,Fayetteville,AR,Supercenter,AR,South,Arkansas,72703,"Walmart Supercenter - Fayetteville , Gas/Diesel,",#0359,3919 N Mall Ave,Fayetteville,AR,72703,(479) 443-7679,-94.15143,36.122421
360,1981-06-30,NA,NA,40,119,2004 EAST MAIN,Cushing,OK,Wal-Mart,OK,South,Oklahoma,74023,"Walmart Supercenter - Cushing,",#0360,3100 E. Main St.,Cushing,OK,74023,(918) 225-0578,-96.721085,35.986486
362,1981-08-18,NA,NA,01,093,2365 HIGHWAY 43 WEST,Winfield,AL,Wal-Mart,AL,South,Alabama,35594,"Walmart Supercenter - Winfield,",#0362,2575 Hwy 43,Winfield,AL,35594,(205) 487-4359,-87.840515,33.936065
363,1981-12-01,2005-03-23,1,29,195,855 S CHEROKEE DRIVE,Marshall,MO,Supercenter,MO,Midwest,Missouri,65340,"Walmart Supercenter - Marshall , Gas/Diesel,",#0363,855 S Cherokee Dr,Marshall,MO,65340,(660) 886-6852,-93.214963,39.111584
364,1981-03-31,2005-01-26,1,48,419,810 HURST STREET,Center,TX,Supercenter,TX,South,Texas,75935,"Walmart Supercenter - Center , Gas/Diesel,",#0364,810 Hurst St,Center,TX,75935,(936) 598-6131,-94.19321,31.801551
365,1981-03-31,1999-03-01,1,28,121,5520 HWY 80 EAST,Pearl,MS,Supercenter,MS,South,Mississippi,39208,"Walmart Supercenter - Pearl, Gas,",#0365,5520 Hwy 80 East,Pearl,MS,39208,(601) 939-0281,-90.046095,32.285551
366,1983-02-01,1999-03-01,1,47,123,4525 HWY 411,Madisonville,TN,Supercenter,TN,South,Tennessee,37354,"Walmart Supercenter - Madisonville , Gas/Diesel,",#0366,4525 Hwy 411,Madisonville,TN,37354,(423) 442-5237,-84.360805,35.512984
368,1980-11-11,NA,NA,20,099,300 MAIN STREET,Parsons,KS,Wal-Mart,KS,Midwest,Kansas,67357,"Walmart Supercenter - Parsons,",#0368,3201 No 16th St,Parsons,KS,67357,(620) 421-0375,-95.255962,37.371225
369,1980-11-18,NA,NA,20,035,2202 PIKE RD,Winfield,KS,Wal-Mart,KS,Midwest,Kansas,67156,"Walmart Supercenter - Winfield,",#0369,2202 Pike Rd,Winfield,KS,67156,(620) 221-6233,-96.993832,37.227151
370,1980-11-18,NA,NA,20,191,1201 W 8TH,Wellington,KS,Wal-Mart,KS,Midwest,Kansas,67152,"Walmart Supercenter - Wellington ,",#0370,2022 E 16th St,Wellington,KS,67152,(620) 326-2261,-97.373245,37.274201
371,1981-09-29,1995-03-01,1,48,221,735 HWY 377 EAST,Granbury,TX,Supercenter,TX,South,Texas,76048,"Walmart Supercenter - Granbury, Gas,",#0371,735 Hwy 377 East,Granbury,TX,76048,(817) 573-3791,-97.780423,32.433398
372,1981-03-10,1997-03-01,1,20,057,1905 NORTH 14 AVE,Dodge City,KS,Supercenter,KS,Midwest,Kansas,67801,"Walmart Supercenter - Dodge City , Gas,",#0372,1905 North 14 Ave,Dodge City,KS,67801,(620) 225-3917,-100.034369,37.768347
373,1981-03-10,NA,NA,05,087,EAST LEE STREET,Huntsville,AR,Wal-Mart,AR,South,Arkansas,72740,"Walmart - Huntsville,",#0373,121 East Lee St,Huntsville,AR,72740,(479) 738-2001,-93.733559,36.086251
374,1981-07-21,NA,NA,40,145,13795 SOUTH STATE HIGHWAY 51,Coweta,OK,Wal-Mart,OK,South,Oklahoma,74429,"Walmart Supercenter - Coweta,",#0374,11207 S Hwy 51,Coweta,OK,74429,(918) 486-6511,-95.67838,36.001832
375,1981-08-11,NA,NA,01,089,2900 S. MEM PKWY(DRAKE AVE),Huntsville,AL,Wal-Mart,AL,South,Alabama,35801,"Walmart - Huntsville,",#0375,2900 S. Mem Pkwy (drake Ave),Huntsville,AL,35801,(256) 536-2870,-86.590234,34.706408
376,1981-04-21,1996-03-01,1,22,015,2536 AIRLINE DR,Bossier City,LA,Supercenter,LA,South,Louisiana,71111,"Walmart Supercenter - Bossier City, Gas,",#0376,2536 Airline Dr,Bossier City,LA,71111,(318) 747-0173,-93.707532,32.548111
378,1981-09-29,NA,NA,20,085,209 ARIZONA AVENUE,Holton,KS,Wal-Mart,KS,Midwest,Kansas,66436,"Walmart - Holton,",#0378,209 Arizona,Holton,KS,66436,(785) 364-4148,-95.7496,39.460859
379,1981-10-20,2004-04-14,1,29,043,2004 WEST MARLER LANE,Ozark,MO,Supercenter,MO,Midwest,Missouri,65721,"Walmart Supercenter - Ozark , Gas/Diesel,",#0379,2004 West Marler Lane,Ozark,MO,65721,(417) 581-2761,-93.227969,37.002176
380,1982-02-02,NA,NA,05,127,1359 WEST 2ND STREET,Waldron,AR,Wal-Mart,AR,South,Arkansas,72958,"Walmart - Waldron,",#0380,1359 West 2nd St,Waldron,AR,72958,(479) 637-2169,-94.105865,34.899722
381,1981-08-04,1995-03-01,1,48,099,2720 EAST HWY 190,Copperas Cove,TX,Supercenter,TX,South,Texas,76522,"Walmart Supercenter - Copperas Cove, Gas,",#0381,2720 East Hwy 190,Copperas Cove,TX,76522,(254) 542-7600,-97.870476,31.119124
382,1981-03-03,1995-03-01,1,20,059,2101 PRINCETON RD,Ottawa,KS,Supercenter,KS,Midwest,Kansas,66067,"Walmart Supercenter - Ottawa, Gas,",#0382,2101 Princeton Rd,Ottawa,KS,66067,(785) 242-9222,-95.265274,38.58128
383,1981-07-08,2004-04-14,1,48,199,1100 NO. HIGHWAY 96,Silsbee,TX,Supercenter,TX,South,Texas,77656,"Walmart Supercenter - Silsbee , Gas/Diesel,",#0383,1100 N Hwy 96,Silsbee,TX,77656,(409) 385-0782,-94.147814,30.340647
384,1981-12-01,2004-04-14,1,48,199,100 NO. LHS DRIVE,Lumberton,TX,Supercenter,TX,South,Texas,77657,"Walmart Supercenter - Lumberton , Gas/Diesel,",#0384,100 No Lhs Dr,Lumberton,TX,77657,(409) 755-1963,-94.21624,30.257565
385,1981-07-28,NA,NA,48,123,1202 E BROADWAY,Cuero,TX,Wal-Mart,TX,South,Texas,77954,"Walmart - Cuero,",#0385,1202 E BRdway,Cuero,TX,77954,(361) 275-5796,-97.271346,29.088711
386,1983-07-01,1995-03-01,1,22,053,303 INTERSTATE DR,Jennings,LA,Supercenter,LA,South,Louisiana,70546,"Walmart Supercenter - Jenning , Gas,",#0386,303 Interstate Dr,Jenning,LA,70546,(337) 824-4838,-92.660467,30.244848
387,1982-09-21,NA,NA,40,081,1700 EAST FIRST STREET,Chandler,OK,Wal-Mart,OK,South,Oklahoma,74834,"Walmart Supercenter - Chandler,",#0387,3100 E. 1st St,Chandler,OK,74834,(405) 258-0541,-96.842962,35.709953
388,1982-08-31,NA,NA,05,131,2600 MIDLAND BLVD,Ft. Smith,AR,Wal-Mart,AR,South,Arkansas,72904,"Walmart Supercenter - Fort Smith , Gas/Diesel,",#0388,2100 N 62nd St,Fort Smith,AR,72904,(479) 785-5964,-94.364871,35.399707
389,1981-11-17,NA,NA,40,109,3200 SOUTH BROADWAY,Edmond,OK,Wal-Mart,OK,South,Oklahoma,73013,"Wm Nbrhd Mkt - Oklahoma City (N) , Gas/Diesel,",#3275,1101 Nw 164th St,Edmond,OK,73013,(405) 216-8478,-97.532541,35.639175
390,1981-03-10,2003-08-20,1,47,085,275 WALTON DR,Waverly,TN,Supercenter,TN,South,Tennessee,37185,"Walmart Supercenter - Waverly , Gas/Diesel,",#0390,275 Walton Dr,Waverly,TN,37185,(931) 296-9235,-87.831657,36.0833
391,1981-06-02,1997-03-01,1,28,081,2270 WEST MAIN STREET,Tupelo,MS,Supercenter,MS,South,Mississippi,38801,"Walmart Supercenter - Tupelo (NW),",#0391,2270 West Main St,Tupelo,MS,38801,(662) 844-4011,-88.741128,34.257156
392,1981-06-02,NA,NA,40,039,800 EAST MAIN STREET,Weatherford,OK,Wal-Mart,OK,South,Oklahoma,73096,"Walmart Supercenter - Weatherford,",#0392,1349 E. Eagle Ave.,Weatherford,OK,73096,(580) 772-1408,-98.689911,35.523151
393,1981-09-01,2004-03-17,1,47,113,2171 SOUTH HIGHLAND AVE,Jackson,TN,Supercenter,TN,South,Tennessee,38301,"Walmart Supercenter - Jackson , Gas/Diesel,",#0393,2171 South Highland Ave,Jackson,TN,38301,(731) 442-1614,-88.810999,35.553739
394,1981-12-01,2005-01-26,1,01,079,15445 HIGHWAY 24,Moulton,AL,Supercenter,AL,South,Alabama,35650,"Walmart Supercenter - Moulton,",#0394,15445 Hwy 24,Moulton,AL,35650,(256) 974-1128,-87.276973,34.494578
395,1981-11-03,1994-03-01,1,48,215,2410 EAST EXPRESSWAY 83,Mission,TX,Supercenter,TX,South,Texas,78572,"Walmart Supercenter - Mission , Gas/Diesel,",#0395,2410 East Expressway 83,Mission,TX,78572,(956) 580-3393,-98.286679,26.194601
396,1984-03-06,1998-03-01,1,45,007,3812 LIBERTY HWY,Anderson,SC,Supercenter,SC,South,South Carolina,29621,"Walmart Supercenter - Anderson (N),",#0396,3812 Liberty Hwy,Anderson,SC,29621,(864) 225-1800,-82.679222,34.555156
397,1981-11-17,1998-03-01,1,48,215,1200 E. JACKSON AVE.,McAllen (S),TX,Supercenter,TX,South,Texas,78503,"Walmart Supercenter - McAllen (S),",#0397,1200 E. Jackson Ave.,Mcallen,TX,78503,(956) 686-4311,-98.209752,26.189291
398,1982-05-04,1993-03-01,1,48,183,515 E LOOP 281,Longview,TX,Supercenter,TX,South,Texas,75605,"Walmart Supercenter - Longview (NE),",#0398,515 E Loop 281,Longview,TX,75605,(903) 663-4446,-94.72841,32.54172
399,1981-12-01,2004-08-25,1,48,183,2440 GILMER ROAD,Longview,TX,Supercenter,TX,South,Texas,75604,"Walmart Supercenter - Longview , Gas/Diesel,",#0399,2440 Gilmer Rd,Longview,TX,75604,(903) 297-1121,-94.786191,32.531794
400,1983-10-18,1996-03-01,1,48,339,1407 LOOP 336 WEST,Conroe,TX,Supercenter,TX,South,Texas,77304,"Walmart Supercenter - Conroe,",#0400,1407 Loop 336 West,Conroe,TX,77304,(936) 788-5400,-95.480434,30.331266
401,1981-09-29,NA,NA,22,047,58485 BELLVIEW ROAD,Plaquemine,LA,Wal-Mart,LA,South,Louisiana,70764,"Walmart Supercenter - Plaquemine , Gas/Diesel,",#0401,59690 Belleview Dr,Plaquemine,LA,70764,(225) 687-2550,-91.253902,30.263154
402,1981-12-01,NA,NA,22,099,1400 REES STREET,Breaux Bridge,LA,Wal-Mart,LA,South,Louisiana,70517,"Walmart Supercenter - Breaux Bridge,",#0402,1932 Rees St,Breaux Bridge,LA,70517,(337) 332-1280,-91.911009,30.292717
403,1981-11-03,2005-01-26,1,01,059,13675 HWY 43,Russellville,AL,Supercenter,AL,South,Alabama,35653,"Walmart Supercenter - Russellville , Gas/Diesel,",#0403,13675 Hwy 43,Russellville,AL,35653,(256) 332-7382,-87.728099,34.494889
404,1982-03-02,1996-03-01,1,48,209,1015 HWY 80,San Marcos,TX,Supercenter,TX,South,Texas,78666,"Walmart Supercenter - San Marcos,",#0404,1015 Hwy 80,San Marcos,TX,78666,(512) 353-0617,-97.913367,29.882579
405,1982-08-17,1998-03-01,1,22,115,2204 SOUTH FIFTH ST,Leesville,LA,Supercenter,LA,South,Louisiana,71446,"Walmart Supercenter - Leesville,",#0405,2204 South Fifth St,Leesville,LA,71446,(337) 238-9041,-93.273372,31.118505
406,1981-11-03,1995-03-01,1,47,149,570 ENON SPRINGS ROAD,Smyrna,TN,Supercenter,TN,South,Tennessee,37167,"Walmart Supercenter - Smyrna, Gas,",#0406,570 Enon Springs Rd,Smyrna,TN,37167,(615) 355-1029,-86.495551,35.972032
407,1981-12-01,1999-03-01,1,48,027,1400 LOWE'S BLVD.,Killeen,TX,Supercenter,TX,South,Texas,76542,"Walmart Supercenter - Killeen,",#0407,1400 Lowe's Blvd.,Killeen,TX,76542,(254) 526-4102,-97.728714,31.091067
408,1982-07-13,2002-02-20,1,48,245,8585 MEMORIAL BLVD,Nederland,TX,Supercenter,TX,South,Texas,77642,"Walmart Supercenter - Port Arthur , Gas/Diesel,",#0408,8585 Memorial Blvd,Port Arthur,TX,77642,(409) 727-4667,-93.993109,29.942866
409,1981-10-13,NA,NA,01,133,42417 HWY 195,Haleyville,AL,Wal-Mart,AL,South,Alabama,35565,"Walmart Supercenter - Haleyville,",#0409,42466 Hwy 195,Haleyville,AL,35565,(205) 486-9498,-87.598816,34.239773
410,1981-10-06,1996-03-01,1,21,035,809 NORTH 12TH STREET,Murray,KY,Supercenter,KY,South,Kentucky,42071,"Walmart Supercenter - Murray, Gas,",#0410,809 North 12th St,Murray,KY,42071,(270) 753-2195,-88.316485,36.627129
411,1982-08-03,NA,NA,28,017,660 EAST MADISON,Houston,MS,Wal-Mart,MS,South,Mississippi,38851,"Walmart - Houston,",#0411,660 East Madison,Houston,MS,38851,(662) 456-5711,-88.989612,33.895154
412,1983-05-24,1995-03-01,1,48,213,1405 EAST TYLER,Athens,TX,Supercenter,TX,South,Texas,75751,"Walmart Supercenter - Athens, Gas,",#0412,1405 East Tyler,Athens,TX,75751,(903) 677-5400,-95.832231,32.210012
413,1982-05-18,2005-05-18,1,48,061,1401 WEST HWY 100,Port Isabel,TX,Supercenter,TX,South,Texas,78578,"Walmart Supercenter - Port Isabel,",#0413,1401 West Hwy 100,Port Isabel,TX,78578,(956) 943-1387,-97.222208,26.070079
417,1983-05-03,1994-03-01,1,48,223,1750 S. BROADWAY,Sulpher Springs,TX,Supercenter,TX,South,Texas,75482,"Walmart Supercenter - Sulphur Springs , Gas,",#0417,1750 S. BRdway,Sulphur Springs,TX,75482,(903) 439-3144,-95.595144,33.106717
418,1982-08-03,NA,NA,31,095,1501 K STREET,Fairbury,NE,Wal-Mart,NE,Midwest,Nebraska,68352,"Walmart Supercenter - Fairbury,",#0418,2831 Hwy 15,Fairbury,NE,68352,(402) 729-3394,-97.17446,40.162538
419,1982-08-17,2003-05-21,1,20,151,2003 EAST 1ST ST,Pratt,KS,Supercenter,KS,Midwest,Kansas,67124,"Walmart Supercenter - Pratt,",#0419,2003 E 1st St,Pratt,KS,67124,(620) 672-7548,-98.713429,37.644658
420,1982-05-31,2000-03-01,1,48,485,2700 CENTRAL FREEWAY,Wichita Falls,TX,Supercenter,TX,South,Texas,76305,"Walmart Supercenter - Wichita Falls (N), Gas,",#0420,2700 Central Freeway,Wichita Falls,TX,76305,(940) 851-0629,-98.528166,33.950935
421,1982-06-29,1995-03-01,1,48,497,800 S US HWY 81/287,Decatur,TX,Supercenter,TX,South,Texas,76234,"Walmart Supercenter - Decatur, Gas,",#0421,800 S Us Hwy 81/287,Decatur,TX,76234,(940) 627-5546,-97.595088,33.228783
422,1982-08-03,NA,NA,17,033,1304 EAST MAIN STREET,Robinson,IL,Wal-Mart,IL,Midwest,Illinois,62454,"Walmart Supercenter - Robinson,",#0422,1304 East Main St,Robinson,IL,62454,(618) 546-5676,-87.72373,39.007955
423,1981-12-01,2005-08-24,1,01,117,630 COLONIAL PROMENADE PKWY,Pelham,AL,Supercenter,AL,South,Alabama,35007,"Walmart Supercenter - Alabaster , Gas/Diesel,",#0423,630 Colonial Promenade Pkwy,Alabaster,AL,35007,(205) 620-0360,-86.80236,33.235791
424,1982-08-03,1994-03-01,1,01,021,1415 7TH STREET SOUTH,Clanton,AL,Supercenter,AL,South,Alabama,35045,"Walmart Supercenter - Clanton, Gas,",#0424,1415 7th St South,Clanton,AL,35045,(205) 755-7574,-86.608656,32.81751
425,1982-08-03,NA,NA,01,007,30 WALNUT STREET,Brent,AL,Wal-Mart,AL,South,Alabama,35034,"Walmart Supercenter - Brent,",#0425,10675 Hwy 5,Brent,AL,35034,(205) 926-4878,-87.171218,32.963891
426,1982-11-30,1998-03-01,1,48,121,4691 STATE HWY 121,The Colony,TX,Supercenter,TX,South,Texas,75056,"Walmart Supercenter - Colony , Gas,",#0426,4691 State Hwy 121,Colony,TX,75056,(972) 625-6000,-96.891551,33.066429
427,1982-10-05,1994-03-01,1,48,231,7401 INTERSTATE 30,Greenville,TX,Supercenter,TX,South,Texas,75402,"Walmart Supercenter - Greenville,",#0427,7401 Interstate 30,Greenville,TX,75402,(903) 455-1792,-96.107452,33.093896
428,1983-10-04,1996-03-01,1,22,033,5801 MAIN STREET,Zachary,LA,Supercenter,LA,South,Louisiana,70791,"Walmart Supercenter - Zachary,",#0428,5801 Main St,Zachary,LA,70791,(225) 654-0313,-91.142328,30.650268
429,1981-11-03,1994-03-01,1,48,215,1724 W UNIVERSITY DRIVE,Edinburg,TX,Supercenter,TX,South,Texas,78539,"Walmart Supercenter - Edinburg , Gas/Diesel,",#0429,1724 W University Dr,Edinburg,TX,78539,(956) 381-6674,-98.180642,26.302513
430,1981-09-01,1996-03-01,1,21,083,1225 PARIS ROAD,Mayfield,KY,Supercenter,KY,South,Kentucky,42066,"Walmart Supercenter - Mayfield,",#0430,1225 Paris Rd,Mayfield,KY,42066,(270) 247-0358,-88.628711,36.720992
431,1981-08-18,1995-03-01,1,21,145,3220 IRVING COBB DRIVE,Paducah,KY,Supercenter,KY,South,Kentucky,42003,"Walmart Supercenter - Paducah,",#0431,3220 Irving Cobb Dr,Paducah,KY,42003,(270) 444-6941,-88.565154,37.05137
432,1981-08-18,2004-04-21,1,01,121,214 HAYNES STREET,Talladega,AL,Supercenter,AL,South,Alabama,35160,"Walmart Supercenter - Talladega , Gas/Diesel,",#0432,214 Haynes St,Talladega,AL,35160,(256) 761-1681,-86.081078,33.438168
433,1981-08-11,2004-03-17,1,01,089,2200 SPARKMAN DRIVE,Huntsville,AL,Supercenter,AL,South,Alabama,35810,"Walmart Supercenter - Huntsville , Gas/Diesel,",#0433,2200 Sparkman Dr,Huntsville,AL,35810,(256) 852-2236,-86.592125,34.764268
434,1981-08-11,1996-03-01,1,01,089,11610 MEMORIAL PKWY SOUTH,Huntsville,AL,Supercenter,AL,South,Alabama,35803,"Walmart Supercenter - Huntsville, Gas,",#0434,11610 Memorial Pkwy South,Huntsville,AL,35803,(256) 881-0581,-86.569318,34.615841
435,1982-09-21,2001-03-14,1,17,119,12495 STATE RTE 143,Highland,IL,Supercenter,IL,Midwest,Illinois,62249,"Walmart Supercenter - Highland,",#0435,12495 State Rte 143,Highland,IL,62249,(618) 654-4596,-89.684135,38.760092
436,1982-09-21,NA,NA,17,027,2517 FRANKLIN ST,Carlyle,IL,Wal-Mart,IL,Midwest,Illinois,62231,"Walmart Supercenter - Carlyle ,",#0436,2591 12th St,Carlyle,IL,62231,(618) 594-2465,-89.375923,38.62933
437,1982-09-21,NA,NA,48,015,2200 HIGHWAY 36 SOUTH,Sealy,TX,Wal-Mart,TX,South,Texas,77474,"Walmart Supercenter - Sealy , Gas/Diesel,",#0437,310 Overcreek Way,Sealy,TX,77474,(979) 627-7758,-96.151637,29.758078
438,1984-02-01,NA,NA,48,429,3732 WEST WALKER,Breckenridge,TX,Wal-Mart,TX,South,Texas,76424,"Walmart - Breckenridge,",#0438,3732 W Walker,Breckenridge,TX,76424,(254) 559-6579,-98.944764,32.759707
440,1982-08-31,2004-10-27,1,48,007,2401 HWY 35 NORTH,Rockport,TX,Supercenter,TX,South,Texas,78382,"Walmart Supercenter - Rockport , Gas/Diesel,",#0440,2401 Hwy 35 North,Rockport,TX,78382,(361) 729-9277,-97.044024,28.047937
442,1982-04-20,1996-03-01,1,48,273,1133 E GEN'L CAVAZOS BLVD,Kingsville,TX,Supercenter,TX,South,Texas,78363,"Walmart Supercenter - Kingsville, Gas,",#0442,1133 E General Cavazos Blvd,Kingsville,TX,78363,(361) 595-4146,-97.853641,27.490401
443,1982-10-05,NA,NA,48,325,103 19TH STREET,Hondo,TX,Wal-Mart,TX,South,Texas,78861,"Walmart Supercenter - Hondo , Gas/Diesel,",#0443,109 22nd St,Hondo,TX,78861,(830) 426-4356,-99.126881,29.344756
444,1982-07-13,2002-05-22,1,29,077,3315 SOUTH CAMPBELL,Springfield,MO,Supercenter,MO,Midwest,Missouri,65807,"Walmart Supercenter - Springfield (SW),",#0444,3315 S Campbell,Springfield,MO,65807,(417) 887-0855,-93.297675,37.153652
445,1982-10-05,2003-08-20,1,21,085,1801 ELIZABETHTOWN ROAD,Leitchfield,KY,Supercenter,KY,South,Kentucky,42754,"Walmart Supercenter - Leitchfield , Gas/Diesel,",#0445,1801 Elizabethtown Rd,Leitchfield,KY,42754,(270) 259-5622,-86.265974,37.485662
446,1984-04-03,NA,NA,48,313,1620 EAST MAIN,Madisonville,TX,Wal-Mart,TX,South,Texas,77864,"Walmart - Madisonville,",#0446,1620 East Main,Madisonville,TX,77864,(936) 348-3715,-95.89464,30.957137
447,1982-11-16,2002-05-15,1,48,465,2410 DODSON ST,Del Rio,TX,Supercenter,TX,South,Texas,78840,"Walmart Supercenter - Del Rio , Gas/Diesel,",#0447,2410 Dodson St.,Del Rio,TX,78840,(830) 774-6034,-100.902051,29.395691
448,1982-08-03,1998-03-01,1,22,017,6235 WESTPORT AVE,Shreveport,LA,Supercenter,LA,South,Louisiana,71129,"Walmart Supercenter - Shreveport (NW), Gas,",#0448,6235 Westport Ave,Shreveport,LA,71129,(318) 688-7700,-93.868055,32.447586
449,1983-05-03,2003-05-21,1,48,245,4999 TWIN CITY HWY,Groves,TX,Supercenter,TX,South,Texas,77642,"Walmart Supercenter - Port Arthur (Groves) , Gas/Diesel,",#0449,4999 Twin City Hwy,Port Arthur,TX,77642,(409) 962-7858,-93.940003,29.937301
450,1982-11-16,2002-03-01,1,22,017,9550 MANSFIELD RD,Shreveport,LA,Supercenter,LA,South,Louisiana,71118,"Walmart Supercenter - Shreveport (S) , Gas/Diesel,",#0450,9550 Mansfield Rd,Shreveport,LA,71118,(318) 688-0538,-93.817857,32.387882
451,1982-02-02,NA,NA,29,019,405 NIFONG BLVD,Columbia,MO,Wal-Mart,MO,Midwest,Missouri,65201,"Walmart Supercenter - Columbia,",#0159,415 Conley Rd,Columbia,MO,65201,(573) 499-4935,-92.295834,38.954906
452,1982-04-20,NA,NA,48,215,4001 NORTH 23RD,McAllen (N),TX,Wal-Mart,TX,South,Texas,78504,"Walmart Supercenter - Mc Allen , Gas/Diesel,",#0452,2800 Nolana Ave,Mcallen,TX,78504,(956) 687-8285,-98.245125,26.242761
453,1982-03-16,NA,NA,29,069,1007 NORTH DOUGLAS,Malden,MO,Wal-Mart,MO,Midwest,Missouri,63863,"Walmart - Malden,",#0453,1007 North Douglas,Malden,MO,63863,(573) 276-5735,-89.971678,36.570247
454,1982-03-02,2005-04-13,1,17,191,150 COMMERCE DRIVE,Fairfield,IL,Supercenter,IL,Midwest,Illinois,62837,"Walmart Supercenter - Fairfield, Gas/Diesel,",#0454,150 Commerce Dr,Fairfield,IL,62837,(618) 842-7633,-88.388977,38.377574
456,1982-10-05,2001-03-14,1,48,061,3500 W ALTON GLOOR BLVD,Brownsville,TX,Supercenter,TX,South,Texas,78520,"Walmart Supercenter - Brownsville,",#0456,3500 W Alton Gloor Blvd,Brownsville,TX,78520,(956) 350-2022,-97.520206,25.976078
457,1983-03-01,NA,NA,48,361,1350 NORTH MAIN,Vidor,TX,Wal-Mart,TX,South,Texas,77662,"Walmart - Vidor,",#0457,1350 North Main,Vidor,TX,77662,(409) 769-6233,-94.015026,30.143414
458,1982-11-02,2001-03-14,1,48,409,2501 WEST WHEELER,Aransas Pass,TX,Supercenter,TX,South,Texas,78336,"Walmart Supercenter - Aransas Pass , Gas/Diesel,",#0458,2501 West Wheeler,Aransas Pass,TX,78336,(361) 758-2920,-97.176781,27.922889
459,1983-11-29,NA,NA,13,217,9218 HWY 278 NE,Covington,GA,Wal-Mart,GA,South,Georgia,30014,"Walmart Supercenter - Covington,",#4558,4200 Salem Rd,Covington,GA,30016,(678) 212-3195 (NOP),-83.959945,33.577048
460,1983-11-29,NA,NA,17,021,10 WEST SECOND,Pana,IL,Wal-Mart,IL,Midwest,Illinois,62557,"Walmart - Pana,",#0460,10 West Second,Pana,IL,62557,(217) 562-5081,-89.084426,39.389956
461,1982-08-17,2002-10-30,1,48,323,496 SOUTH BIBB ST.,Eagle Pass,TX,Supercenter,TX,South,Texas,78852,"Walmart Supercenter - Eagle Pass , Gas/Diesel,",#0461,496 S Bibb St,Eagle Pass,TX,78852,(830) 773-9403,-100.481888,28.701362
462,1982-10-05,2001-05-16,1,48,039,400 SOUTH BYPASS 35,Alvin,TX,Supercenter,TX,South,Texas,77511,"Walmart Supercenter - Alvin , Gas/Diesel,",#0462,400 South Bypass 35,Alvin,TX,77511,(281) 585-2825,-95.22923,29.4222
463,1982-08-31,NA,NA,48,025,2201 NORTH SAINT MARY,Beeville,TX,Wal-Mart,TX,South,Texas,78102,"Walmart Supercenter - Beeville , Gas/Diesel,",#0463,502 East Fm 351,Beeville,TX,78102,(361) 358-4764,-97.753496,28.422943
464,1982-10-05,1994-03-01,1,48,355,3829 US HWY 77,Corpus Christi,TX,Supercenter,TX,South,Texas,78410,"Walmart Supercenter - Corpus Christi,",#0464,3829 Us Hwy 77,Corpus Christi,TX,78410,(361) 387-0599,-97.631853,27.853625
465,1982-11-16,NA,NA,48,493,534 10TH STREET,Floresville,TX,Wal-Mart,TX,South,Texas,78114,"Walmart Supercenter - Floresville, Gas/Diesel,",#0465,305 10th St,Floresville,TX,78114,(830) 393-4417,-98.179168,29.163236
466,1982-11-16,2002-10-30,1,47,069,1604 WEST MARKET ST.,Bolivar,TN,Supercenter,TN,South,Tennessee,38008,"Walmart Supercenter - Bolivar , Gas/Diesel,",#0466,1604 W Market St,Bolivar,TN,38008,(731) 658-7794,-89.025086,35.279358
467,1982-11-16,1996-03-01,1,48,121,1515 SOUTH LOOP 288,Denton,TX,Supercenter,TX,South,Texas,76208,"Walmart Supercenter - Denton , Gas,",#0467,1515 South Loop 288,Denton,TX,76205,(940) 484-1717,-97.093666,33.192246
468,1982-11-16,2002-04-24,1,05,091,133 ARKANSAS BLVD,Texarkana,AR,Supercenter,AR,South,Arkansas,71854,"Walmart Supercenter - Texarkana , Gas/Diesel,",#0468,133 Arkansas Blvd,Texarkana,AR,71854,(870) 772-1501,-94.039737,33.461264
469,1982-11-02,1994-03-01,1,22,019,3415 US 14,Lake Charles,LA,Supercenter,LA,South,Louisiana,70607,"Walmart Supercenter - Lake Charles (W) , Gas/Diesel,",#1204,3451 Nelson Rd,Lake Charles,LA,70605,(337) 477-3785,-93.246952,30.195221
470,1982-10-05,1996-03-01,1,48,355,1821 SOUTH PADRE ISLAND DR,Corpus Christi,TX,Supercenter,TX,South,Texas,78416,"Walmart Supercenter - Corpus Christi (NW),",#0470,1821 South Padre Island Dr,Corpus Christi,TX,78416,(361) 854-0943,-97.43816,27.739036
471,1982-10-05,1999-03-01,1,48,113,150 NORTH BECKLEY,Lancaster,TX,Supercenter,TX,South,Texas,75146,"Walmart Supercenter - Lancaster, Gas,",#0471,150 North Beckley,Lancaster,TX,75146,(972) 223-9791,-96.820344,32.592293
472,1986-04-29,1999-03-01,1,40,143,2301 WEST KENOSHA ST,Broken Arrow,OK,Supercenter,OK,South,Oklahoma,74012,"Walmart Supercenter - Broken Arrow , Gas/Diesel,",#0472,2301 West Kenosha St,Broken Arrow,OK,74012,(918) 259-9126,-95.817421,36.058967
473,1983-04-05,NA,NA,48,287,US HWY 290/2374 E AUSTIN,Giddings,TX,Wal-Mart,TX,South,Texas,78942,"Walmart - Giddings,",#0473,2374 E Austin St,Giddings,TX,78942,(979) 542-0589,-96.915285,30.178184
474,1982-11-02,NA,NA,48,239,1002 NORTH WELLS,Edna,TX,Wal-Mart,TX,South,Texas,77957,"Walmart - Edna,",#0474,1002 North Wells,Edna,TX,77957,(361) 782-5223,-96.650084,28.988477
475,1982-11-30,1995-03-01,1,48,491,2701 SOUTH IH-35,Round Rock,TX,Supercenter,TX,South,Texas,78664,"Walmart Supercenter - Round Rock,",#0475,2701 South Ih-35,Round Rock,TX,78664,(512) 310-9024,-97.67106,30.482821
476,1983-07-01,2005-05-18,1,48,099,2805 SO. HWY 36,Gatesville,TX,Supercenter,TX,South,Texas,76528,"Walmart Supercenter - Gatesville , Gas/Diesel,",#0476,2805 So Hwy 36,Gatesville,TX,76528,(254) 865-8991,-97.714075,31.425336
477,1982-11-16,2005-04-13,1,47,065,9334 DAYTON PIKE,Soddy-Daisy,TN,Supercenter,TN,South,Tennessee,37379,"Walmart Supercenter - Soddy-daisy , Gas/Diesel,",#0477,9334 Dayton Pike,Soddy-daisy,TN,37379,(423) 332-2412,-85.199939,35.235082
478,1984-03-06,NA,NA,48,163,819 N OAK STREET,Pearsall,TX,Wal-Mart,TX,South,Texas,78061,"Walmart - Pearsall,",#0478,819 N Oak St,Pearsall,TX,78061,(830) 334-9451,-99.093647,28.898789
479,1982-09-21,1995-03-01,1,40,065,2500 NORTH MAIN,Altus,OK,Supercenter,OK,South,Oklahoma,73521,"Walmart Supercenter - Altus, Gas,",#0479,2500 North Main,Altus,OK,73521,(580) 482-8189,-99.332287,34.663952
480,1982-11-30,NA,NA,17,149,US 36 & 151 SHETLAND DRIVE,Pittsfield,IL,Wal-Mart,IL,Midwest,Illinois,62363,"Walmart - Pittsfield,",#0480,151 Shetland Dr,Pittsfield,IL,62363,(217) 285-9621,-90.822875,39.604672
481,1982-11-02,1994-03-01,1,17,029,101 DETTRO DRIVE,Mattoon,IL,Supercenter,IL,Midwest,Illinois,61938,"Walmart Supercenter - Mattoon , Gas,",#0481,101 Dettro Dr,Mattoon,IL,61938,(217) 234-2266,-88.337439,39.482459
482,1984-07-17,NA,NA,48,039,301 N COLUMBIA DR,West Columbia,TX,Wal-Mart,TX,South,Texas,77486,"Walmart - West Columbia,",#0482,301 N Columbia Dr,West Columbia,TX,77486,(979) 345-3147,-95.659036,29.150853
483,1982-10-05,1996-03-01,1,01,001,1903 COBBS FORD RD,Prattville,AL,Supercenter,AL,South,Alabama,36066,"Walmart Supercenter - Prattville,",#0483,1903 Cobbs Ford Rd,Prattville,AL,36066,(334) 361-2135,-86.416339,32.462164
484,1983-02-01,NA,NA,20,045,3300 IOWA STREET,Lawrence,KS,Wal-Mart,KS,Midwest,Kansas,66046,"Walmart Supercenter - Lawrence,",#0484,3300 Iowa St,Lawrence,KS,66046,(785) 832-8600,-95.25799,38.923564
485,1983-08-02,2005-06-15,1,22,005,37000 HWY 3089,Donaldsonville,LA,Supercenter,LA,South,Louisiana,70346,"Walmart Supercenter - Donaldsonville , Gas/Diesel,",#0485,37000 Hwy 3089,Donaldsonville,LA,70346,(225) 473-6687,-90.98063,30.094311
486,1983-10-04,2002-10-30,1,20,209,12801 KANSAS AVENUE,Bonner Springs,KS,Supercenter,KS,Midwest,Kansas,66012,"Walmart Supercenter - Bonner Springs,",#0486,12801 Kansas Ave,Bonner Springs,KS,66012,(913) 441-6751,-94.878378,39.08598
487,1983-03-01,NA,NA,17,039,10 CLINTON PLAZA HWY 54 WEST,Clinton,IL,Wal-Mart,IL,Midwest,Illinois,61727,"Walmart - Clinton,",#0487,10 Clinton Plaza Hwy 54 West,Clinton,IL,61727,(217) 935-9586,-88.958668,40.147869
488,1982-11-16,2002-10-16,1,12,039,1940 PAT THOMAS PKWY,Quincy,FL,Supercenter,FL,South,Florida,32351,"Walmart Supercenter - Quincy , Gas/Diesel,",#0488,1940 Pat Thomas Pky,Quincy,FL,32351,(850) 875-1661,-84.594523,30.557241
489,1983-08-02,1994-03-01,1,22,105,2799 WEST THOMAS STREET,Hammond,LA,Supercenter,LA,South,Louisiana,70401,"Walmart Supercenter - Hammond, Gas,",#0489,2799 West Thomas St,Hammond,LA,70401,(985) 345-8876,-90.493138,30.501962
491,1983-03-01,1993-03-01,1,21,145,5130 HINKLEVILLE ROAD,Paducah,KY,Supercenter,KY,South,Kentucky,42001,"Walmart Supercenter - Paducah, Gas,",#0491,5130 Hinkleville Rd,Paducah,KY,42001,(270) 444-0066,-88.688038,37.07336
492,1983-10-18,1996-03-01,1,18,083,650 KIMMEL RD,Vicennes,IN,Supercenter,IN,Midwest,Indiana,47591,"Walmart Supercenter - Vincennes,",#0492,650 Kimmel Rd,Vincennes,IN,47591,(812) 886-0312,-87.505446,38.662343
493,1983-04-05,NA,NA,21,017,2000 PARIS BYPASS,Paris,KY,Wal-Mart,KY,South,Kentucky,40361,"Walmart Supercenter - Paris , Gas/Diesel,",#0493,305 Letton Dr,Paris,KY,40361,(859) 987-2817,-84.276678,38.197532
494,1982-10-05,1996-03-01,1,13,077,1025 BULLSBORO DR,Newnan,GA,Supercenter,GA,South,Georgia,30265,"Walmart Supercenter - Newnan,",#0494,1025 Bullsboro Dr,Newnan,GA,30265,(770) 502-0677,-84.744096,33.394357
495,1983-08-02,2000-03-01,1,28,087,1913 HWY 45 NORTH,Columbus,MS,Supercenter,MS,South,Mississippi,39701,"Walmart Supercenter - Columbus, Gas,",#0495,1913 Hwy 45 North,Columbus,MS,39701,(662) 329-4810,-88.437804,33.518615
